IR940	IR830	RED	YELLOW	GREEN	BLUE	VIOLET400	UV351	Pitch	Roll	Heading	GPSTime	Altitude					
118	124	48	80	13	47	37	102	3	3	227	6-26_15:49:0.0	261.3				
119	128	49	82	18	40	41	99	3	3	227	6-26_15:49:1.0	261.8				
105	117	30	83	23	30	44	89	3	3	227	6-26_15:49:2.0	261.8				
126	121	54	71	28	35	54	98	3	3	228	6-26_15:49:3.0	261.3				
102	119	36	78	19	32	36	85	3	3	228	6-26_15:49:4.0	261.5				
101	101	37	64	27	26	43	71	2	3	227	6-26_15:49:5.0	261.6				
96	96	34	71	13	32	34	78	3	3	227	6-26_15:49:6.0	261.6				
99	96	38	76	12	33	27	73	3	3	228	6-26_15:49:7.0	261.6				
103	95	41	69	11	36	24	75	3	3	228	6-26_15:49:8.0	261.2				
98	75	34	47	17	25	27	50	1	1	228	6-26_15:49:9.0	260.9				
116	44	35	27	9	24	15	57	2	6	224	6-26_15:49:10.0	260.7				
92	33	18	15	10	23	11	47	4	0	217	6-26_15:49:11.0	260.7				
111	39	27	29	20	18	26	68	3	356	228	6-26_15:49:12.0	260.9				
175	107	43	77	18	34	30	121	4	34	0	6-26_15:49:13.0	260.9				
235	223	81	117	42	76	80	135	355	35	276	6-26_15:49:14.0	261.5				
310	332	125	187	64	109	157	145	342	9	331	6-26_15:49:15.0	262.1				
288	337	116	166	62	120	143	125	347	5	233	6-26_15:49:16.0	262.4				
290	326	64	152	28	90	75	140	340	17	260	6-26_15:49:17.0	262.7				
282	317	103	135	57	83	101	121	344	11	271	6-26_15:49:18.0	262.9				
276	281	76	125	38	76	70	111	347	11	267	6-26_15:49:19.0	262.9				
257	247	88	126	47	77	88	119	350	10	267	6-26_15:49:20.0	263				
284	277	91	159	50	96	100	147	346	2	253	6-26_15:49:21.0	263.2				
235	216	62	121	28	53	56	127	351	7	247	6-26_15:49:22.0	263.9				
241	213	81	111	51	62	82	113	355	13	254	6-26_15:49:23.0	264.6				
207	161	50	81	30	31	44	102	2	12	265	6-26_15:49:24.0	265.3				
202	159	53	74	22	37	33	105	6	15	260	6-26_15:49:25.0	266				
219	162	45	97	33	30	64	118	4	4	254	6-26_15:49:26.0	266.5				
211	171	61	89	34	39	51	120	1	10	244	6-26_15:49:27.0	267				
224	185	75	105	37	53	65	141	8	15	224	6-26_15:49:28.0	267.5				
217	169	66	95	30	53	63	126	6	17	270	6-26_15:49:29.0	267.6				
210	137	54	93	26	41	61	117	9	21	280	6-26_15:49:30.0	269.5				
240	190	89	114	46	68	87	136	6	16	246	6-26_15:49:31.0	270.1				
349	464	156	257	97	158	244	164	8	6	106	6-26_15:49:32.0	271.4				
238	239	91	155	54	83	133	143	12	5	320	6-26_15:49:33.0	273.1				
338	367	153	217	80	142	192	175	15	25	204	6-26_15:49:34.0	275.9				
355	464	174	271	99	162	249	185	8	17	139	6-26_15:49:35.0	279.8				
234	257	83	132	50	81	112	116	8	19	20	6-26_15:49:36.0	282.3				
353	419	150	226	85	139	191	165	12	359	127	6-26_15:49:37.0	284.1				
168	167	74	91	38	42	66	91	6	23	327	6-26_15:49:38.0	286.1				
133	107	43	56	17	19	31	57	15	15	10	6-26_15:49:39.0	289.2				
335	420	150	229	85	151	222	164	19	5	65	6-26_15:49:40.0	292.2				
324	402	141	216	86	148	210	162	13	16	63	6-26_15:49:41.0	296				
378	571	176	308	120	196	323	162	8	26	100	6-26_15:49:42.0	298.9				
378	469	160	255	94	150	239	172	16	7	46	6-26_15:49:43.0	300.1				
357	465	156	263	94	162	270	169	15	11	211	6-26_15:49:44.0	301.1				
210	172	86	114	37	62	90	123	15	30	321	6-26_15:49:45.0	301.9				
316	342	129	198	80	119	173	176	19	29	32	6-26_15:49:46.0	305.1				
370	551	163	281	109	187	290	159	10	2	90	6-26_15:49:47.0	310				
349	450	144	240	97	158	239	160	8	22	2	6-26_15:49:48.0	313.6				
305	310	112	177	63	105	144	157	9	7	88	6-26_15:49:49.0	317.5				
407	551	183	299	112	192	289	190	10	17	150	6-26_15:49:50.0	321.6				
316	366	140	211	84	141	229	154	13	19	334	6-26_15:49:51.0	324.8				
141	104	44	54	21	23	34	60	12	21	339	6-26_15:49:52.0	329.1				
272	273	117	171	48	106	158	162	18	14	357	6-26_15:49:53.0	332.9				
351	449	167	251	96	165	248	166	18	18	107	6-26_15:49:54.0	338				
411	629	191	346	120	220	353	157	8	20	150	6-26_15:49:55.0	343.1				
253	217	90	132	44	80	102	123	16	13	356	6-26_15:49:56.0	348				
384	510	167	277	107	175	292	174	15	9	34	6-26_15:49:57.0	351.3				
294	330	135	190	68	144	225	154	12	18	266	6-26_15:49:58.0	355.9				
263	259	110	153	50	106	155	143	10	5	295	6-26_15:49:59.0	360.2				
242	181	86	115	40	62	100	134	12	25	345	6-26_15:50:0.0	365				
410	581	194	333	134	214	357	174	13	12	256	6-26_15:50:1.0	369.5				
328	380	128	206	80	139	188	165	9	2	73	6-26_15:50:2.0	374				
173	115	46	74	23	32	44	94	8	24	326	6-26_15:50:3.0	378.7				
386	527	166	291	111	180	299	171	10	8	4	6-26_15:50:4.0	383.1				
302	347	130	201	83	136	202	149	9	359	13	6-26_15:50:5.0	387.7				
210	126	50	77	21	37	40	115	2	26	28	6-26_15:50:6.0	392.7				
410	559	188	311	122	201	336	171	12	12	317	6-26_15:50:7.0	397.7				
226	203	65	118	48	61	85	124	0	24	4	6-26_15:50:8.0	404.3				
228	210	69	118	35	68	96	127	2	12	20	6-26_15:50:9.0	410.3				
195	148	53	88	22	41	48	94	1	14	54	6-26_15:50:10.0	414.3				
307	334	135	204	85	138	202	148	3	2	212	6-26_15:50:11.0	419.4				
267	261	94	154	65	96	135	147	11	15	358	6-26_15:50:12.0	424.3				
280	250	106	158	66	99	149	138	7	22	308	6-26_15:50:13.0	431.1				
228	187	65	113	37	55	82	120	11	17	349	6-26_15:50:14.0	436.5				
345	427	150	240	96	155	215	162	6	2	98	6-26_15:50:15.0	442.9				
259	258	99	149	53	95	136	145	9	23	314	6-26_15:50:16.0	448.1				
164	105	41	64	22	29	32	86	0	25	359	6-26_15:50:17.0	452.3				
350	421	152	241	85	146	228	162	8	9	69	6-26_15:50:18.0	457.2				
310	346	123	193	76	129	190	150	15	4	47	6-26_15:50:19.0	462.8				
230	204	73	121	32	72	99	121	7	15	66	6-26_15:50:20.0	468.9				
347	407	162	238	94	149	246	165	17	7	274	6-26_15:50:21.0	474.3				
257	216	98	132	50	92	131	137	12	22	252	6-26_15:50:22.0	480.6				
390	469	168	259	105	166	270	160	12	19	324	6-26_15:50:23.0	486.6				
292	318	99	170	60	99	134	144	7	19	82	6-26_15:50:24.0	492.5				
199	122	48	75	35	35	40	112	11	19	351	6-26_15:50:25.0	497.4				
319	370	132	206	83	137	217	149	14	4	214	6-26_15:50:26.0	503.1				
215	125	63	88	34	51	68	111	8	25	330	6-26_15:50:27.0	509.2				
355	395	148	233	91	151	236	166	18	13	228	6-26_15:50:28.0	513.7				
319	324	136	190	71	130	193	140	18	21	221	6-26_15:50:29.0	521				
360	466	150	268	92	158	273	177	14	18	214	6-26_15:50:30.0	526.1				
312	357	141	223	100	152	239	163	17	10	250	6-26_15:50:31.0	531.9				
313	342	139	207	86	153	224	157	18	20	296	6-26_15:50:32.0	538.8				
391	518	171	281	122	188	313	156	13	5	233	6-26_15:50:33.0	545.6				
246	171	76	105	36	67	90	128	11	25	290	6-26_15:50:34.0	550.7				
403	490	182	271	104	185	274	165	16	8	6	6-26_15:50:35.0	557.1				
339	399	148	235	97	163	242	151	15	10	203	6-26_15:50:36.0	564.4				
242	198	88	129	48	72	112	128	11	19	308	6-26_15:50:37.0	569.9				
221	159	59	101	47	69	83	125	10	22	19	6-26_15:50:38.0	576				
342	385	147	228	95	158	255	165	14	19	299	6-26_15:50:39.0	583				
380	502	171	277	109	179	303	161	11	5	72	6-26_15:50:40.0	589.4				
232	166	71	115	39	57	87	118	9	20	274	6-26_15:50:41.0	597.6				
284	271	124	177	73	118	173	137	13	21	256	6-26_15:50:42.0	603.4				
357	464	141	264	104	165	263	183	10	12	197	6-26_15:50:43.0	610.4				
300	317	126	190	72	124	202	152	15	9	258	6-26_15:50:44.0	616.2				
337	369	156	226	101	164	238	158	12	27	301	6-26_15:50:45.0	623.3				
306	364	116	193	82	137	200	145	6	11	47	6-26_15:50:46.0	630.1				
313	356	119	193	70	124	196	148	2	22	305	6-26_15:50:47.0	637.5				
345	395	141	224	86	137	198	163	13	9	110	6-26_15:50:48.0	645.3				
326	392	119	210	83	133	199	163	9	9	76	6-26_15:50:49.0	652.3				
332	395	138	231	87	145	241	163	9	9	215	6-26_15:50:50.0	659.3				
305	309	129	186	73	125	197	160	17	25	307	6-26_15:50:51.0	665.2				
278	247	119	164	57	98	166	151	7	22	321	6-26_15:50:52.0	672.7				
279	220	106	146	58	94	143	148	13	21	298	6-26_15:50:53.0	679.7				
377	437	166	241	105	169	254	151	14	14	240	6-26_15:50:54.0	687.9				
308	316	130	198	87	140	207	145	21	23	245	6-26_15:50:55.0	694.6				
295	280	115	170	69	117	183	142	12	10	247	6-26_15:50:56.0	700.4				
315	334	129	195	75	124	198	162	13	17	303	6-26_15:50:57.0	707.5				
243	182	83	123	47	73	99	142	8	21	22	6-26_15:50:58.0	714.4				
272	238	107	154	49	83	141	143	5	18	339	6-26_15:50:59.0	723.2				
264	237	79	131	43	80	122	128	6	19	303	6-26_15:51:0.0	730.6				
248	240	83	136	52	78	112	115	1	16	21	6-26_15:51:1.0	738.3				
231	214	70	117	43	67	101	105	7	11	25	6-26_15:51:2.0	745				
262	217	81	131	54	81	105	130	4	23	28	6-26_15:51:3.0	751.3				
318	349	126	199	72	119	203	136	15	349	354	6-26_15:51:4.0	758.7				
318	340	118	198	80	124	197	147	9	14	323	6-26_15:51:5.0	766				
293	292	99	163	63	101	164	142	12	3	31	6-26_15:51:6.0	772.7				
279	307	102	174	64	104	170	144	11	1	42	6-26_15:51:7.0	780				
337	424	140	238	92	157	253	143	12	9	30	6-26_15:51:8.0	787.6				
267	247	97	150	55	88	138	146	2	18	0	6-26_15:51:9.0	794.7				
226	174	67	106	35	61	90	125	8	11	2	6-26_15:51:10.0	801.9				
207	145	61	94	35	53	72	109	9	13	28	6-26_15:51:11.0	808.4				
268	242	82	139	50	82	118	130	4	22	71	6-26_15:51:12.0	815.9				
266	235	99	149	59	94	132	133	8	11	3	6-26_15:51:13.0	823.4				
273	240	101	155	54	86	140	140	14	2	49	6-26_15:51:14.0	830.6				
268	235	88	139	56	89	132	122	9	17	325	6-26_15:51:15.0	837.6				
259	238	96	150	52	84	152	130	10	15	327	6-26_15:51:16.0	845.2				
202	134	63	93	34	54	62	113	6	19	8	6-26_15:51:17.0	851.8				
347	401	153	220	91	158	229	150	6	17	322	6-26_15:51:18.0	858.1				
286	300	114	185	71	119	193	146	12	5	296	6-26_15:51:19.0	865.5				
354	436	154	242	88	167	260	147	13	9	291	6-26_15:51:20.0	872.8				
221	156	46	82	18	36	56	101	8	21	42	6-26_15:51:21.0	880.9				
308	301	109	171	61	99	175	137	13	16	340	6-26_15:51:22.0	888.3				
361	441	147	247	87	156	243	162	12	3	115	6-26_15:51:23.0	895.9				
203	129	51	84	27	44	63	104	8	19	344	6-26_15:51:24.0	902.2				
263	237	86	141	49	83	144	124	14	17	306	6-26_15:51:25.0	910				
355	432	145	237	97	157	262	151	12	7	294	6-26_15:51:26.0	917.5				
288	265	102	160	70	107	151	149	12	21	13	6-26_15:51:27.0	926.2				
238	160	54	93	27	48	79	129	9	22	16	6-26_15:51:28.0	934.4				
368	416	157	238	101	160	251	143	15	20	215	6-26_15:51:29.0	942.2				
338	410	140	244	83	148	250	153	13	16	208	6-26_15:51:30.0	949.3				
268	239	99	150	69	110	159	127	12	18	270	6-26_15:51:31.0	956.6				
321	336	140	192	83	147	215	138	16	21	286	6-26_15:51:32.0	963.4				
278	256	117	168	63	110	174	151	13	21	325	6-26_15:51:33.0	971.1				
327	365	142	221	78	146	228	158	16	20	281	6-26_15:51:34.0	978.8				
306	257	117	156	56	96	164	139	12	22	236	6-26_15:51:35.0	986.3				
251	178	71	110	42	72	106	120	8	21	280	6-26_15:51:36.0	994.6				
324	355	135	216	75	142	218	154	14	12	215	6-26_15:51:37.0	1001.6				
339	377	130	219	81	143	243	146	12	19	249	6-26_15:51:38.0	1009.5				
299	296	119	173	74	124	189	135	13	16	298	6-26_15:51:39.0	1017.3				
365	435	162	247	106	169	274	158	17	16	293	6-26_15:51:40.0	1025.1				
308	268	124	160	57	109	165	131	13	25	260	6-26_15:51:41.0	1032.4				
356	402	152	223	94	149	246	137	14	15	210	6-26_15:51:42.0	1041.6				
317	311	127	187	80	127	205	143	15	15	227	6-26_15:51:43.0	1049.7				
296	297	124	171	72	127	195	126	12	25	289	6-26_15:51:44.0	1056.9				
268	239	101	145	54	92	156	122	9	21	309	6-26_15:51:45.0	1064.7				
329	383	141	207	79	150	223	124	16	8	300	6-26_15:51:46.0	1072.4				
298	272	104	168	64	96	178	137	11	23	284	6-26_15:51:47.0	1080.8				
215	125	49	85	28	32	60	109	9	22	327	6-26_15:51:48.0	1088.8				
298	290	122	168	67	120	175	145	16	20	245	6-26_15:51:49.0	1096.5				
324	350	129	206	85	134	235	140	15	23	256	6-26_15:51:50.0	1103.2				
321	348	127	207	78	138	237	131	11	16	262	6-26_15:51:51.0	1110.6				
306	318	124	183	74	131	206	123	16	13	309	6-26_15:51:52.0	1117.1				
377	475	170	262	103	182	314	146	15	20	299	6-26_15:51:53.0	1125.3				
390	567	172	299	115	200	346	138	10	15	128	6-26_15:51:54.0	1133.9				
300	281	112	163	67	106	165	139	12	4	60	6-26_15:51:55.0	1142.1				
266	240	89	154	51	99	161	127	10	23	279	6-26_15:51:56.0	1149.3				
356	435	145	237	85	157	245	140	9	10	116	6-26_15:51:57.0	1155.9				
309	360	118	194	83	134	212	143	11	3	332	6-26_15:51:58.0	1163.1				
252	173	66	116	34	67	94	128	4	29	352	6-26_15:51:59.0	1171				
323	371	136	201	71	144	235	128	8	14	303	6-26_15:52:0.0	1178				
255	225	74	126	49	80	128	110	3	16	353	6-26_15:52:1.0	1185.9				
310	326	108	186	62	135	193	125	12	11	315	6-26_15:52:2.0	1193.7				
224	177	79	93	50	50	99	110	6	20	338	6-26_15:52:3.0	1200.5				
296	314	104	175	71	111	167	135	10	17	74	6-26_15:52:4.0	1207.5				
327	376	126	206	81	141	229	137	8	11	29	6-26_15:52:5.0	1214.5				
279	269	101	157	56	112	164	132	13	11	318	6-26_15:52:6.0	1222.1				
242	162	66	104	39	57	83	120	7	18	342	6-26_15:52:7.0	1230				
236	193	71	105	43	63	91	120	10	16	12	6-26_15:52:8.0	1237.5				
345	410	150	219	90	157	252	136	6	9	48	6-26_15:52:9.0	1245.6				
261	220	82	137	62	75	128	129	9	24	270	6-26_15:52:10.0	1253.7				
252	198	81	125	57	73	134	124	10	20	289	6-26_15:52:11.0	1260				
302	318	107	182	78	130	201	139	10	7	201	6-26_15:52:12.0	1266.6				
241	211	85	127	36	90	125	119	9	21	338	6-26_15:52:13.0	1274.1				
316	368	116	211	89	125	211	126	12	17	289	6-26_15:52:14.0	1282.2				
319	383	130	208	78	131	222	118	13	5	0	6-26_15:52:15.0	1290				
260	181	80	108	50	62	105	125	7	26	281	6-26_15:52:16.0	1298.6				
314	376	126	216	74	123	219	126	13	9	32	6-26_15:52:17.0	1307.2				
288	283	107	162	70	114	181	123	16	16	259	6-26_15:52:18.0	1315				
269	245	94	144	67	95	153	112	12	22	313	6-26_15:52:19.0	1322.8				
286	323	111	182	62	131	220	131	13	11	243	6-26_15:52:20.0	1331.3				
299	333	116	181	79	130	209	117	14	12	329	6-26_15:52:21.0	1339.4				
299	240	107	136	54	99	155	118	10	26	258	6-26_15:52:22.0	1347.9				
311	366	111	199	73	130	213	126	13	20	204	6-26_15:52:23.0	1356.3				
316	327	109	185	77	128	202	128	11	8	286	6-26_15:52:24.0	1363.9				
250	205	86	118	53	88	138	96	11	27	305	6-26_15:52:25.0	1370.9				
294	332	110	191	73	124	212	123	13	12	245	6-26_15:52:26.0	1379.3				
293	316	95	175	82	120	194	112	12	14	314	6-26_15:52:27.0	1387				
266	224	94	129	49	92	141	114	12	22	32	6-26_15:52:28.0	1394.2				
307	361	111	199	73	132	222	120	15	10	128	6-26_15:52:29.0	1402.8				
309	350	100	182	63	115	194	123	14	15	202	6-26_15:52:30.0	1411.6				
267	226	94	139	54	92	152	119	15	20	273	6-26_15:52:31.0	1418.4				
260	227	94	132	48	91	152	101	13	23	302	6-26_15:52:32.0	1425.6				
276	288	98	164	53	98	162	114	15	10	253	6-26_15:52:33.0	1433.9				
289	300	103	157	57	113	193	105	14	15	330	6-26_15:52:34.0	1441.8				
277	211	86	126	50	76	125	106	9	25	270	6-26_15:52:35.0	1449.1				
287	311	101	183	67	114	176	119	15	18	322	6-26_15:52:36.0	1457.7				
299	326	106	181	68	113	188	118	11	12	241	6-26_15:52:37.0	1465.2				
239	195	90	115	37	68	119	87	13	25	306	6-26_15:52:38.0	1472.3				
263	267	86	149	57	97	160	102	14	21	301	6-26_15:52:39.0	1481.2				
262	275	95	158	63	101	170	110	12	13	295	6-26_15:52:40.0	1489.7				
252	213	75	113	43	77	129	91	13	18	20	6-26_15:52:41.0	1497.7				
279	284	90	156	59	97	169	109	13	24	220	6-26_15:52:42.0	1507.3				
274	276	83	150	50	88	154	109	10	17	319	6-26_15:52:43.0	1514.8				
271	234	91	142	62	98	149	101	13	8	225	6-26_15:52:44.0	1521.7				
251	230	78	131	45	78	137	96	13	25	288	6-26_15:52:45.0	1529.7				
285	300	92	163	70	114	172	103	10	11	209	6-26_15:52:46.0	1537.5				
233	184	78	118	52	81	111	87	14	8	345	6-26_15:52:47.0	1545.4				
243	211	69	114	39	70	124	95	12	22	337	6-26_15:52:48.0	1553.2				
273	266	95	155	52	81	145	109	10	10	73	6-26_15:52:49.0	1561.2				
260	236	79	134	51	85	127	95	11	8	126	6-26_15:52:50.0	1569.3				
244	197	77	119	46	67	103	92	8	28	310	6-26_15:52:51.0	1577.1				
290	303	103	168	53	103	174	105	12	9	36	6-26_15:52:52.0	1585.1				
289	293	102	162	58	106	165	111	7	11	300	6-26_15:52:53.0	1593				
238	214	64	113	46	84	116	87	9	26	11	6-26_15:52:54.0	1600.8				
288	305	104	170	58	104	170	111	13	11	47	6-26_15:52:55.0	1609.1				
281	289	94	159	61	96	160	111	7	13	53	6-26_15:52:56.0	1617.4				
267	262	85	149	54	85	149	112	13	11	7	6-26_15:52:57.0	1625.1				
310	306	103	174	70	107	183	119	13	19	254	6-26_15:52:58.0	1633.4				
308	349	116	188	71	112	196	119	8	11	144	6-26_15:52:59.0	1641.2				
283	281	104	155	56	104	150	116	13	17	344	6-26_15:53:0.0	1649.6				
303	328	112	191	61	121	181	127	14	15	339	6-26_15:53:1.0	1658.6				
329	364	119	214	73	132	209	125	11	6	103	6-26_15:53:2.0	1667.5				
308	309	99	186	56	104	171	122	13	19	252	6-26_15:53:3.0	1675.1				
336	381	129	216	73	136	209	141	14	20	239	6-26_15:53:4.0	1683.4				
338	406	136	225	78	138	223	137	9	11	134	6-26_15:53:5.0	1690.8				
336	374	127	217	71	134	204	142	16	12	287	6-26_15:53:6.0	1698.4				
328	383	134	215	72	133	205	142	12	19	314	6-26_15:53:7.0	1707.1				
363	437	151	248	82	153	247	147	11	2	129	6-26_15:53:8.0	1715.4				
335	374	128	218	74	132	210	140	11	26	287	6-26_15:53:9.0	1724.4				
375	460	151	264	96	154	251	153	15	12	3	6-26_15:53:10.0	1731.7				
390	483	164	277	96	168	272	161	12	13	280	6-26_15:53:11.0	1739.3				
375	426	158	244	80	160	247	147	11	17	305	6-26_15:53:12.0	1747.6				
375	446	160	262	86	148	245	158	12	20	327	6-26_15:53:13.0	1755.4				
394	495	165	282	95	176	279	167	14	13	245	6-26_15:53:14.0	1763.5				
391	477	164	277	95	170	272	164	13	14	236	6-26_15:53:15.0	1771.3				
415	518	180	304	109	182	295	175	17	21	300	6-26_15:53:16.0	1778.7				
430	537	182	312	112	186	311	183	12	22	266	6-26_15:53:17.0	1786.9				
457	593	200	351	118	200	342	193	15	8	233	6-26_15:53:18.0	1794.6				
408	505	177	304	107	180	291	171	13	29	312	6-26_15:53:19.0	1802				
426	533	178	312	106	185	299	174	10	19	302	6-26_15:53:20.0	1810				
422	530	179	310	103	181	299	177	12	6	7	6-26_15:53:21.0	1818.8				
454	573	202	345	109	193	331	188	8	24	260	6-26_15:53:22.0	1827.9				
468	616	214	362	125	221	365	189	11	21	222	6-26_15:53:23.0	1827.9				
478	640	213	377	136	232	373	199	10	12	168	6-26_15:53:24.0	1842.8				
457	584	208	348	112	216	323	196	13	18	304	6-26_15:53:25.0	1850.2				
449	576	202	341	124	211	326	194	13	23	318	6-26_15:53:26.0	1858.7				
477	626	225	369	125	227	364	203	13	13	259	6-26_15:53:27.0	1858.7				
472	620	213	374	121	226	360	198	16	17	315	6-26_15:53:28.0	1873.9				
503	661	231	411	134	238	387	224	15	17	205	6-26_15:53:29.0	1882.1				
518	702	249	422	145	253	408	225	12	11	45	6-26_15:53:30.0	1890.3				
507	667	233	394	149	243	380	215	15	16	298	6-26_15:53:31.0	1897.7				
504	661	236	406	136	237	388	216	11	22	322	6-26_15:53:32.0	1906.6				
546	747	252	442	152	260	428	239	9	11	256	6-26_15:53:33.0	1915.5				
544	725	259	435	155	263	431	228	11	12	275	6-26_15:53:34.0	1924.7				
496	650	238	397	144	236	387	219	14	26	243	6-26_15:53:35.0	1932.2				
536	742	260	446	148	262	440	230	16	10	156	6-26_15:53:36.0	1941				
538	717	255	431	145	258	416	238	11	8	202	6-26_15:53:37.0	1949.8				
559	762	264	463	162	271	446	243	8	28	329	6-26_15:53:38.0	1957.8				
636	834	314	534	190	329	512	272	14	17	254	6-26_15:53:39.0	1966.6				
653	835	322	559	186	340	545	269	10	20	207	6-26_15:53:40.0	1975.6				
539	723	252	432	159	261	416	244	9	20	358	6-26_15:53:41.0	1983.6				
639	836	312	536	181	313	514	290	8	8	31	6-26_15:53:42.0	1992.1				
510	644	228	404	148	240	380	239	14	18	249	6-26_15:53:43.0	2000.3				
708	835	332	565	198	339	521	322	16	17	270	6-26_15:53:44.0	2008.2				
695	834	350	566	209	347	555	292	14	12	219	6-26_15:53:45.0	2016.1				
661	822	333	571	188	342	551	285	16	13	283	6-26_15:53:46.0	2024				
537	731	262	446	150	262	432	240	12	24	57	6-26_15:53:47.0	2033.1				
571	802	288	475	169	293	478	265	14	19	157	6-26_15:53:48.0	2042.5				
585	812	294	492	176	298	477	261	10	14	148	6-26_15:53:49.0	2051.6				
483	575	216	360	131	210	307	253	13	15	267	6-26_15:53:50.0	2059.9				
757	834	365	602	214	361	573	343	11	21	283	6-26_15:53:51.0	2068.4				
605	827	294	484	175	307	499	285	10	12	83	6-26_15:53:52.0	2076.7				
723	837	347	596	207	352	557	338	11	6	270	6-26_15:53:53.0	2084.8				
537	717	255	429	141	266	426	246	7	25	12	6-26_15:53:54.0	2092.9				
767	836	393	642	231	412	649	315	11	7	26	6-26_15:53:55.0	2100.9				
600	813	301	497	179	295	475	287	5	7	46	6-26_15:53:56.0	2109.1				
648	819	328	530	189	317	507	313	5	21	340	6-26_15:53:57.0	2117				
643	834	322	543	201	341	549	277	10	4	112	6-26_15:53:58.0	2124.8				
596	791	300	479	173	298	463	272	10	27	353	6-26_15:53:59.0	2132.7				
791	836	402	671	243	411	648	360	14	9	284	6-26_15:54:0.0	2141.5				
819	837	442	722	260	449	730	323	11	16	207	6-26_15:54:1.0	2149.4				
624	817	312	520	195	334	521	281	12	5	348	6-26_15:54:2.0	2156.3				
553	670	267	421	155	267	404	288	12	24	241	6-26_15:54:3.0	2163.1				
622	837	313	521	182	317	509	290	9	12	93	6-26_15:54:4.0	2171.1				
603	814	293	494	187	310	488	287	5	15	116	6-26_15:54:5.0	2177.7				
706	812	347	579	204	343	538	342	12	12	283	6-26_15:54:6.0	2183.2				
635	815	325	526	193	330	525	287	10	24	322	6-26_15:54:7.0	2190.7				
789	837	415	683	250	428	675	343	9	7	68	6-26_15:54:8.0	2197.2				
547	669	234	401	142	222	335	290	7	26	282	6-26_15:54:9.0	2203.6				
683	835	341	582	206	364	578	313	13	8	58	6-26_15:54:10.0	2211				
667	835	330	537	195	335	523	312	7	21	13	6-26_15:54:11.0	2217.3				
567	725	280	442	167	293	448	287	10	6	153	6-26_15:54:12.0	2224.2				
726	834	372	611	223	376	606	337	10	20	300	6-26_15:54:13.0	2232.2				
564	758	275	454	158	280	444	257	9	22	11	6-26_15:54:14.0	2239.6				
674	835	341	564	206	363	564	319	17	21	80	6-26_15:54:15.0	2246.4				
679	835	346	577	204	363	572	319	10	19	118	6-26_15:54:16.0	2254.1				
755	837	388	639	234	414	648	330	10	20	92	6-26_15:54:17.0	2261.7				
715	830	345	567	209	351	547	334	14	16	283	6-26_15:54:18.0	2269.1				
709	835	362	598	230	401	639	325	14	7	72	6-26_15:54:19.0	2276.2				
789	835	415	683	245	433	692	352	12	19	289	6-26_15:54:20.0	2284				
654	835	323	550	197	342	542	309	14	25	346	6-26_15:54:21.0	2291.6				
745	835	414	664	262	432	694	304	14	7	121	6-26_15:54:22.0	2299.5				
733	835	375	632	233	408	656	317	10	11	158	6-26_15:54:23.0	2306.6				
714	793	342	561	203	355	541	323	13	28	265	6-26_15:54:24.0	2314.8				
665	835	352	563	215	379	604	331	14	13	133	6-26_15:54:25.0	2322.9				
742	836	403	617	243	420	685	335	9	17	166	6-26_15:54:26.0	2329.8				
738	828	352	588	207	367	549	330	9	3	311	6-26_15:54:27.0	2337				
649	804	323	527	204	337	517	305	8	10	121	6-26_15:54:28.0	2344.7				
646	795	325	523	196	335	550	293	9	18	308	6-26_15:54:29.0	2351.5				
526	617	259	396	145	243	371	277	12	22	272	6-26_15:54:30.0	2358.4				
670	834	356	568	219	379	618	324	15	20	204	6-26_15:54:31.0	2365.8				
633	835	332	552	207	351	589	288	14	14	219	6-26_15:54:32.0	2373.4				
808	835	408	680	250	422	670	373	15	11	285	6-26_15:54:33.0	2380.9				
781	835	415	669	249	428	686	321	12	22	306	6-26_15:54:34.0	2388.6				
819	837	453	777	286	488	778	370	10	15	294	6-26_15:54:35.0	2388.6				
796	836	430	692	257	442	710	355	9	13	12	6-26_15:54:36.0	2403.9				
651	813	337	536	203	340	549	318	11	14	101	6-26_15:54:37.0	2411				
794	835	390	653	240	403	624	375	3	24	341	6-26_15:54:38.0	2418.2				
692	835	353	599	211	370	579	323	6	12	68	6-26_15:54:39.0	2425.7				
686	835	354	573	217	373	597	336	7	9	62	6-26_15:54:40.0	2425.7				
694	836	359	594	218	373	596	322	7	20	13	6-26_15:54:41.0	2440.2				
603	778	296	493	181	310	473	299	4	21	59	6-26_15:54:42.0	2447.7				
713	800	355	604	220	362	576	327	8	14	0	6-26_15:54:43.0	2454.1				
746	820	389	637	244	404	635	348	9	15	305	6-26_15:54:44.0	2461.4				
768	836	395	637	235	402	634	378	6	15	20	6-26_15:54:45.0	2468.6				
756	835	382	638	232	409	654	335	8	11	100	6-26_15:54:46.0	2476				
703	820	351	592	221	374	584	327	11	11	277	6-26_15:54:47.0	2482.8				
699	834	354	578	217	374	598	311	12	4	72	6-26_15:54:48.0	2489.6				
694	833	356	580	214	372	591	318	9	19	352	6-26_15:54:49.0	2489.6				
672	835	349	555	217	359	576	312	10	22	73	6-26_15:54:50.0	2504.2				
754	836	393	655	235	415	664	334	16	12	329	6-26_15:54:51.0	2511.3				
732	834	382	637	234	416	670	307	16	7	15	6-26_15:54:52.0	2519.4				
819	837	453	744	265	475	743	411	11	25	318	6-26_15:54:53.0	2526.8				
819	837	455	773	283	500	811	285	18	17	262	6-26_15:54:54.0	2533.6				
747	835	396	642	243	407	662	339	11	19	323	6-26_15:54:55.0	2540.9				
715	835	365	606	226	387	628	319	9	19	77	6-26_15:54:56.0	2540.9				
726	835	370	611	229	394	637	321	10	20	62	6-26_15:54:57.0	2555.4				
760	836	392	657	247	411	669	338	13	9	108	6-26_15:54:58.0	2563.3				
700	832	366	600	232	381	630	316	11	10	10	6-26_15:54:59.0	2570.2				
819	836	477	792	293	506	815	375	9	26	316	6-26_15:55:0.0	2576.6				
660	831	351	583	221	388	635	272	14	13	215	6-26_15:55:1.0	2583.9				
626	836	351	546	214	375	613	288	7	17	186	6-26_15:55:2.0	2591.1				
794	836	426	713	263	456	739	327	13	2	52	6-26_15:55:3.0	2598.4				
656	834	348	548	211	366	587	289	9	20	336	6-26_15:55:4.0	2605.5				
766	836	397	664	240	416	671	342	11	15	53	6-26_15:55:5.0	2612.3				
712	834	369	597	222	389	624	320	13	10	87	6-26_15:55:6.0	2620				
820	837	427	721	270	454	733	354	9	20	314	6-26_15:55:7.0	2620				
815	838	432	689	253	435	697	375	8	21	356	6-26_15:55:8.0	2633.5				
775	836	395	681	245	436	710	320	14	15	280	6-26_15:55:9.0	2641.3				
747	835	388	666	243	431	698	312	17	9	339	6-26_15:55:10.0	2648.5				
746	835	386	655	244	406	662	326	11	19	284	6-26_15:55:11.0	2655.9				
633	833	326	560	198	360	580	275	19	27	289	6-26_15:55:12.0	2662.2				
691	834	355	591	220	380	612	304	12	11	120	6-26_15:55:13.0	2669.1				
707	834	360	605	222	378	624	315	9	21	58	6-26_15:55:14.0	2676.3				
771	835	395	681	245	433	706	323	12	18	153	6-26_15:55:15.0	2683.4				
789	835	402	689	251	434	694	350	7	24	50	6-26_15:55:16.0	2683.4				
733	834	375	624	229	401	638	336	6	14	87	6-26_15:55:17.0	2696.9				
532	794	287	519	177	322	552	280	10	7	350	6-26_15:55:18.0	2704.3				
786	837	417	691	252	444	716	337	14	6	20	6-26_15:55:19.0	2712				
801	837	422	703	265	439	714	369	11	19	8	6-26_15:55:20.0	2718.4				
811	836	433	719	264	458	753	343	15	11	232	6-26_15:55:21.0	2725.4				
735	837	370	676	242	413	692	264	15	16	251	6-26_15:55:22.0	2732.7				
718	835	371	696	250	438	711	276	10	20	291	6-26_15:55:23.0	2739.4				
753	836	408	739	254	455	782	276	9	16	294	6-26_15:55:24.0	2746				
820	837	491	792	311	517	794	442	13	11	93	6-26_15:55:25.0	2752.6				
805	836	446	755	283	490	744	378	11	17	307	6-26_15:55:26.0	2759.4				
761	835	403	712	256	443	730	334	12	25	311	6-26_15:55:27.0	2765.7				
699	836	363	637	243	422	693	248	12	13	42	6-26_15:55:28.0	2772.6				
652	836	334	599	203	364	565	306	10	21	28	6-26_15:55:29.0	2772.6				
815	836	508	807	338	552	783	474	10	3	110	6-26_15:55:30.0	2785.9				
788	836	504	737	307	522	761	562	14	3	5	6-26_15:55:31.0	2792.6				
796	836	429	726	265	473	763	309	8	22	16	6-26_15:55:32.0	2798.9				
552	785	302	545	202	353	575	260	13	15	323	6-26_15:55:33.0	2805.9				
791	836	504	768	299	518	792	453	12	9	76	6-26_15:55:34.0	2812.9				
820	836	448	754	271	483	775	346	8	20	30	6-26_15:55:35.0	2820.1				
672	836	383	652	237	417	687	292	14	18	313	6-26_15:55:36.0	2827				
819	837	555	817	330	564	805	704	16	21	252	6-26_15:55:37.0	2834.6				
575	814	312	512	185	326	503	278	13	25	272	6-26_15:55:38.0	2840.4				
794	836	476	642	272	470	667	489	16	13	230	6-26_15:55:39.0	2846.9				
633	836	339	590	225	393	644	238	18	10	252	6-26_15:55:40.0	2854.4				
663	836	366	654	227	418	689	271	12	20	346	6-26_15:55:41.0	2861				
609	834	348	596	218	392	622	262	11	20	0	6-26_15:55:42.0	2861				
666	834	366	643	237	415	651	290	9	21	12	6-26_15:55:43.0	2875.3				
619	834	347	612	215	391	649	258	11	18	354	6-26_15:55:44.0	2875.3				
695	836	400	648	246	417	648	380	12	16	2	6-26_15:55:45.0	2889.4				
819	837	502	773	291	525	795	748	16	17	204	6-26_15:55:46.0	2896.3				
814	837	429	775	286	490	815	307	9	22	302	6-26_15:55:47.0	2903.3				
815	837	480	812	307	540	835	321	11	23	327	6-26_15:55:48.0	2909.7				
527	834	295	544	202	366	598	228	18	22	295	6-26_15:55:49.0	2916.6				
621	835	360	589	227	389	612	314	16	17	299	6-26_15:55:50.0	2923				
772	835	422	678	271	455	726	335	11	19	309	6-26_15:55:51.0	2929.1				
716	818	416	602	249	422	651	321	11	23	242	6-26_15:55:52.0	2936.7				
820	837	477	819	292	508	823	842	11	13	116	6-26_15:55:53.0	2943.4				
702	819	407	626	240	424	642	379	10	9	296	6-26_15:55:54.0	2949.4				
677	835	381	674	241	426	730	256	8	21	344	6-26_15:55:55.0	2956.6				
589	785	322	515	196	346	554	280	12	11	355	6-26_15:55:56.0	2963.9				
773	835	415	651	264	437	695	332	10	19	96	6-26_15:55:57.0	2970.9				
636	835	350	596	232	403	622	294	15	15	39	6-26_15:55:58.0	2977.7				
810	838	446	805	268	460	759	813	16	17	242	6-26_15:55:59.0	2985.5				
650	817	336	569	215	380	588	268	14	21	272	6-26_15:56:0.0	2992.7				
704	834	383	651	239	435	729	229	13	21	290	6-26_15:56:1.0	2998.9				
544	824	297	543	204	354	615	197	14	20	282	6-26_15:56:2.0	3005.5				
446	779	252	486	183	328	535	188	14	12	284	6-26_15:56:3.0	3012.3				
744	835	432	674	260	458	697	404	11	23	30	6-26_15:56:4.0	3019.1				
800	836	455	691	274	475	726	395	10	19	327	6-26_15:56:5.0	3026.3				
699	836	409	631	243	425	666	608	12	11	130	6-26_15:56:6.0	3033.7				
674	798	377	581	226	386	615	337	11	16	3	6-26_15:56:7.0	3040.6				
725	834	386	656	238	426	734	237	9	21	297	6-26_15:56:8.0	3047.1				
553	831	275	506	191	341	582	190	11	20	270	6-26_15:56:9.0	3053.8				
546	836	285	533	197	349	588	189	13	8	272	6-26_15:56:10.0	3061.1				
661	832	361	585	238	397	618	296	10	26	332	6-26_15:56:11.0	3068.9				
693	834	400	575	239	422	616	495	12	20	257	6-26_15:56:12.0	3076.4				
538	798	303	491	208	355	557	253	9	12	273	6-26_15:56:13.0	3083.1				
639	821	321	568	216	385	625	235	8	27	268	6-26_15:56:14.0	3083.1				
642	749	340	510	219	371	564	357	10	19	231	6-26_15:56:15.0	3096.2				
763	837	401	796	248	444	705	820	8	16	145	6-26_15:56:16.0	3102.3				
736	835	410	639	247	430	692	353	4	18	80	6-26_15:56:17.0	3108.2				
520	785	287	514	188	328	553	222	11	16	326	6-26_15:56:18.0	3115				
593	813	310	545	215	366	620	221	4	15	76	6-26_15:56:19.0	3121.9				
633	817	357	559	224	402	619	391	13	5	37	6-26_15:56:20.0	3128.2				
738	831	385	628	236	408	670	286	9	17	317	6-26_15:56:21.0	3134.6				
559	833	314	533	203	349	553	311	4	17	55	6-26_15:56:22.0	3141.5				
667	821	395	591	243	430	644	404	10	2	67	6-26_15:56:23.0	3147.2				
640	770	361	525	221	372	585	333	9	8	9	6-26_15:56:24.0	3154.3				
433	679	242	425	163	297	501	177	13	4	295	6-26_15:56:25.0	3161.3				
642	829	366	569	229	396	626	307	11	16	1	6-26_15:56:26.0	3168.5				
587	819	304	542	198	355	607	212	8	17	356	6-26_15:56:27.0	3175.4				
620	835	363	607	221	395	610	464	11	5	94	6-26_15:56:28.0	3182.6				
635	800	326	586	217	378	586	425	12	10	340	6-26_15:56:29.0	3189.2				
532	795	274	499	177	317	511	249	6	21	29	6-26_15:56:30.0	3196				
441	685	243	435	169	304	508	181	14	10	270	6-26_15:56:31.0	3203.2				
424	633	232	400	154	275	471	164	10	6	28	6-26_15:56:32.0	3210				
617	835	330	561	215	378	632	232	9	20	356	6-26_15:56:33.0	3216.9				
739	837	387	716	235	423	657	637	15	9	49	6-26_15:56:34.0	3223.1				
756	836	375	726	236	419	665	670	13	9	37	6-26_15:56:35.0	3230				
624	835	320	577	217	373	637	225	10	21	318	6-26_15:56:36.0	3235.9				
454	698	225	421	146	289	480	168	14	17	278	6-26_15:56:37.0	3242.3				
359	546	207	347	141	260	446	142	12	12	227	6-26_15:56:38.0	3249.4				
441	719	236	436	168	312	521	174	12	13	306	6-26_15:56:39.0	3256.3				
692	835	391	595	246	435	635	642	16	23	222	6-26_15:56:40.0	3262.6				
701	836	373	580	250	415	621	270	9	20	263	6-26_15:56:41.0	3269.9				
664	835	361	569	237	392	614	266	13	15	255	6-26_15:56:42.0	3277				
538	661	302	432	192	324	510	233	17	17	224	6-26_15:56:43.0	3283.6				
568	834	299	515	201	351	567	206	9	19	310	6-26_15:56:44.0	3291.2				
605	828	311	551	204	354	607	228	12	15	332	6-26_15:56:45.0	3298.1				
696	836	390	644	234	405	628	633	17	24	332	6-26_15:56:46.0	3305.2				
586	834	355	532	226	381	578	435	11	17	130	6-26_15:56:47.0	3312.1				
515	783	290	471	190	336	549	262	5	20	285	6-26_15:56:48.0	3318.8				
564	794	316	522	194	356	562	358	9	2	47	6-26_15:56:49.0	3324.7				
581	806	305	535	196	347	579	300	9	4	9	6-26_15:56:50.0	3332.3				
570	791	328	532	204	357	576	273	14	7	36	6-26_15:56:51.0	3339.8				
445	685	229	421	158	292	497	170	14	8	260	6-26_15:56:52.0	3348.1				
475	669	253	433	154	277	461	235	9	22	332	6-26_15:56:53.0	3355.2				
303	461	178	310	124	236	416	131	8	9	335	6-26_15:56:54.0	3362.4				
613	803	346	529	205	387	581	491	15	12	15	6-26_15:56:55.0	3368.2				
648	833	314	567	214	375	618	231	7	20	319	6-26_15:56:56.0	3375.2				
734	835	464	726	290	494	731	743	10	9	90	6-26_15:56:57.0	3381.8				
434	654	235	399	165	292	484	164	13	8	338	6-26_15:56:58.0	3388.5				
547	671	283	518	178	328	527	440	14	14	346	6-26_15:56:59.0	3395.2				
471	658	258	419	158	275	438	230	12	23	345	6-26_15:57:0.0	3401.7				
545	818	307	496	203	355	567	256	14	15	8	6-26_15:57:1.0	3408.6				
689	836	393	639	237	398	627	592	15	14	54	6-26_15:57:2.0	3415.4				
692	826	369	655	232	407	664	476	14	17	233	6-26_15:57:3.0	3422.6				
397	586	211	362	144	257	445	143	15	26	266	6-26_15:57:4.0	3428.8				
500	602	286	402	196	312	472	224	13	13	219	6-26_15:57:5.0	3436				
404	555	217	356	144	264	438	156	12	11	235	6-26_15:57:6.0	3443.2				
501	733	287	443	184	321	514	205	14	21	351	6-26_0:2:6.0	3450.3				
611	833	361	531	216	359	571	330	9	29	331	6-26_15:57:7.0	3450.3				
626	835	359	537	223	385	600	421	14	16	327	6-26_15:57:8.0	3457.9				
558	815	342	516	215	366	563	387	11	13	126	6-26_15:57:9.0	3465.1				
510	710	273	456	175	321	518	227	15	16	330	6-26_15:57:10.0	3472.1				
509	639	269	437	182	318	495	279	14	16	231	6-26_15:57:11.0	3479.5				
757	815	334	744	227	384	661	815	9	10	149	6-26_15:57:12.0	3485.9				
476	713	263	424	171	306	495	183	13	16	329	6-26_15:57:13.0	3492.5				
495	744	276	437	184	318	525	212	11	20	346	6-26_15:57:14.0	3500				
298	497	170	315	130	236	455	122	9	9	106	6-26_15:57:15.0	3506				
604	817	348	531	223	385	591	383	14	8	43	6-26_15:57:16.0	3512.2				
442	658	210	402	148	271	470	181	10	22	288	6-26_15:57:17.0	3519.7				
714	835	389	764	301	466	700	387	10	8	117	6-26_15:57:18.0	3526.8				
539	714	306	465	192	347	540	358	7	6	125	6-26_15:57:19.0	3533.4				
516	792	280	462	186	323	552	203	6	20	30	6-26_15:57:20.0	3540.4				
390	541	202	347	134	247	441	161	8	8	114	6-26_15:57:21.0	3547.7				
541	778	283	484	187	327	533	280	10	22	255	6-26_15:57:22.0	3554.2				
572	765	315	495	208	342	555	249	10	19	231	6-26_15:57:23.0	3562.1				
670	835	388	640	223	389	628	374	11	8	115	6-26_15:57:24.0	3569				
486	654	243	402	163	295	478	185	13	14	297	6-26_15:57:25.0	3574.6				
454	702	232	407	162	296	483	158	11	19	319	6-26_15:57:26.0	3582				
590	701	353	486	204	359	535	448	9	12	145	6-26_15:57:27.0	3588.7				
531	794	277	480	192	326	556	213	12	17	37	6-26_15:57:28.0	3595.6				
464	736	262	433	187	318	533	190	12	4	57	6-26_15:57:29.0	3602.4				
589	813	293	510	194	349	587	210	8	18	301	6-26_15:57:30.0	3609.9				
456	664	220	403	145	246	476	180	11	20	327	6-26_15:57:31.0	3616.9				
527	558	287	388	180	322	473	342	19	10	200	6-26_15:57:32.0	3623.5				
465	485	260	339	169	279	434	212	12	16	224	6-26_15:57:33.0	3630.6				
445	708	234	411	170	303	508	166	16	11	321	6-26_15:57:34.0	3637.2				
634	828	388	547	230	414	618	652	17	17	51	6-26_15:57:35.0	3644.7				
557	813	315	491	200	340	546	599	11	15	151	6-26_15:57:36.0	3652.1				
627	795	359	525	229	372	583	399	13	3	104	6-26_15:57:37.0	3659				
415	634	208	368	141	260	446	140	9	22	296	6-26_15:57:38.0	3666.7				
685	821	430	692	305	501	687	500	11	8	114	6-26_15:57:39.0	3673.9				
440	645	238	393	156	264	443	197	13	17	356	6-26_15:57:40.0	3680.8				
306	548	174	326	134	243	445	115	13	9	315	6-26_15:57:41.0	3687.4				
429	733	224	414	170	305	523	172	13	14	297	6-26_15:57:42.0	3694.1				
643	821	380	542	226	408	597	489	16	14	245	6-26_15:57:43.0	3698.4				
602	670	342	443	195	345	517	256	13	20	221	6-26_15:57:44.0	3705.9				
632	684	340	462	202	364	527	276	9	21	224	6-26_15:57:45.0	3712.4				
616	710	325	528	205	365	553	488	10	9	131	6-26_15:57:46.0	3719				
458	729	251	419	178	305	518	176	10	17	357	6-26_15:57:47.0	3725.8				
511	706	267	448	185	316	513	213	9	8	93	6-26_15:57:48.0	3733.2				
451	692	246	407	174	299	502	184	10	20	327	6-26_15:57:49.0	3739.9				
484	744	256	435	176	310	501	196	10	23	32	6-26_15:57:50.0	3746.6				
734	836	385	697	244	410	668	693	16	9	97	6-26_15:57:51.0	3754.3				
521	648	261	459	169	307	496	279	16	19	248	6-26_15:57:52.0	3761.7				
374	523	182	320	125	239	414	120	14	17	266	6-26_15:57:53.0	3768.5				
271	439	144	272	121	219	397	103	15	14	243	6-26_15:57:54.0	3774.9				
449	673	243	395	171	294	500	194	13	20	314	6-26_15:57:55.0	3781.9				
614	790	395	531	217	391	587	465	10	23	128	6-26_15:57:56.0	3789.1				
645	819	380	545	224	394	600	530	11	20	281	6-26_15:57:57.0	3796.5				
433	710	243	426	169	309	524	217	10	12	97	6-26_15:57:58.0	3803.5				
573	774	331	499	209	359	561	340	11	3	85	6-26_15:57:59.0	3810				
475	685	231	383	156	276	454	166	8	24	317	6-26_15:58:0.0	3817				
617	737	289	630	189	334	576	705	10	10	110	6-26_15:58:1.0	3824				
538	755	313	471	208	339	544	274	9	20	76	6-26_15:58:2.0	3830.7				
368	511	184	317	116	222	401	132	11	4	26	6-26_15:58:3.0	3837.6				
626	810	345	508	221	383	586	405	10	18	267	6-26_15:58:4.0	3844.8				
484	701	241	434	161	295	502	187	13	20	14	6-26_15:58:5.0	3851.3				
570	664	297	499	182	337	546	460	16	18	278	6-26_15:58:6.0	3858.1				
817	836	716	817	665	789	836	373	15	11	149	6-26_15:58:7.0	3865.2				
414	517	213	353	141	272	413	184	12	7	260	6-26_15:58:8.0	3872.3				
499	783	281	448	199	332	571	208	10	26	314	6-26_15:58:9.0	3878.7				
249	353	135	239	102	197	370	108	11	10	52	6-26_15:58:10.0	3885.8				
406	671	228	394	161	294	511	168	9	6	47	6-26_15:58:11.0	3893.3				
403	601	202	347	140	256	430	131	6	20	299	6-26_15:58:12.0	3900.6				
680	774	460	646	315	498	684	338	14	13	344	6-26_15:58:13.0	3907.3				
476	710	238	411	163	289	467	183	10	24	333	6-26_15:58:14.0	3914.5				
312	453	168	281	118	226	387	106	15	13	254	6-26_15:58:15.0	3921.6				
330	355	197	263	121	217	347	196	15	11	225	6-26_15:58:16.0	3928.9				
483	750	266	438	184	331	547	212	15	12	307	6-26_15:58:17.0	3935.7				
523	675	289	427	186	309	507	229	10	22	205	6-26_15:58:18.0	3942.4				
740	822	365	722	227	396	681	588	15	12	9	6-26_15:58:19.0	3949.9				
698	775	342	668	233	383	665	536	11	5	101	6-26_15:58:20.0	3957.1				
476	748	270	431	184	311	536	181	7	22	359	6-26_15:58:21.0	3963.3				
390	526	217	330	152	264	436	250	13	11	299	6-26_15:58:22.0	3970.5				
433	645	226	388	156	272	451	200	12	14	347	6-26_15:58:23.0	3978.3				
404	658	209	378	146	268	478	132	11	4	340	6-26_15:58:24.0	3985.3				
496	741	254	447	177	305	503	180	7	25	299	6-26_15:58:25.0	3992.1				
710	835	374	675	235	401	670	438	12	8	129	6-26_15:58:26.0	3999.7				
561	708	301	514	190	339	548	439	11	4	102	6-26_15:58:27.0	4006.3				
457	673	240	389	170	288	477	178	7	24	337	6-26_15:58:28.0	4013.4				
510	651	292	435	179	321	500	314	9	9	120	6-26_15:58:29.0	4021				
472	690	241	398	161	285	476	199	11	15	351	6-26_15:58:30.0	4028.2				
459	731	249	407	180	307	511	160	12	3	357	6-26_15:58:31.0	4034.4				
501	789	245	438	161	293	515	194	7	26	315	6-26_15:58:32.0	4041.7				
816	836	388	799	242	400	772	841	13	7	149	6-26_15:58:33.0	4048.2				
373	525	184	312	131	250	420	120	12	16	270	6-26_15:58:34.0	4054.2				
466	674	231	392	150	273	443	225	6	18	44	6-26_15:58:35.0	4060.7				
501	752	271	434	181	310	512	216	3	23	58	6-26_15:58:36.0	4067.5				
331	483	169	304	131	228	413	111	9	7	341	6-26_15:58:37.0	4074.2				
327	443	164	274	121	228	399	113	8	13	319	6-26_15:58:38.0	4081.1				
603	764	317	544	203	360	570	430	15	11	17	6-26_15:58:39.0	4088.5				
395	566	169	331	122	210	378	161	10	20	329	6-26_15:58:40.0	4095.7				
371	532	164	311	123	227	407	129	13	19	279	6-26_15:58:41.0	4102.3				
221	389	124	246	106	195	370	91	16	14	245	6-26_15:58:42.0	4109.6				
448	646	242	382	149	273	471	210	10	17	346	6-26_15:58:43.0	4116.8				
500	733	255	429	181	308	503	192	11	21	20	6-26_15:58:44.0	4124.2				
563	817	321	504	204	351	576	317	14	8	150	6-26_15:58:45.0	4131.3				
587	749	332	505	211	396	586	505	14	12	16	6-26_15:58:46.0	4138.7				
396	561	185	350	126	241	431	139	10	23	292	6-26_15:58:47.0	4146.1				
291	414	160	268	124	207	381	99	13	20	269	6-26_15:58:48.0	4152.6				
257	393	137	251	116	202	374	85	11	15	246	6-26_15:58:49.0	4159.9				
409	606	205	352	143	256	429	132	10	13	333	6-26_15:58:50.0	4167.1				
501	795	268	442	187	323	555	189	9	19	26	6-26_15:58:51.0	4174.3				
359	655	195	383	153	277	515	143	11	19	338	6-26_15:58:52.0	4181.4				
375	499	182	315	126	235	401	132	11	16	281	6-26_15:58:53.0	4188.3				
385	499	204	327	140	252	434	145	12	6	129	6-26_15:58:54.0	4195.4				
460	738	250	424	186	308	541	183	11	18	319	6-26_15:58:55.0	4203.3				
448	587	236	383	153	285	465	180	10	19	121	6-26_15:58:56.0	4210				
450	546	252	401	162	298	483	332	12	20	343	6-26_15:58:57.0	4216.6				
460	664	222	394	157	270	426	204	12	4	23	6-26_15:58:58.0	4223.6				
510	810	296	474	201	343	582	229	11	26	60	6-26_15:58:59.0	4230.7				
341	514	173	304	130	230	422	112	13	15	356	6-26_15:59:0.0	4237.7				
322	427	166	279	126	223	388	112	14	10	138	6-26_15:59:1.0	4244.6				
261	389	150	255	109	205	371	85	9	19	240	6-26_15:59:2.0	4251.8				
466	585	255	390	169	294	485	251	13	15	345	6-26_15:59:3.0	4258.8				
474	635	240	375	155	262	430	225	10	10	31	6-26_15:59:4.0	4266.2				
753	830	356	686	241	404	744	690	10	20	110	6-26_15:59:5.0	4272.9				
515	657	266	422	178	306	493	183	2	20	265	6-26_15:59:6.0	4279.8				
392	609	192	363	152	252	453	138	12	4	2	6-26_15:59:7.0	4287				
510	754	270	456	193	333	552	204	4	19	329	6-26_15:59:8.0	4294.6				
502	684	282	442	190	316	520	237	12	4	98	6-26_15:59:9.0	4301.6				
471	750	255	420	178	315	536	161	8	17	29	6-26_15:59:10.0	4309				
295	473	163	273	124	224	394	96	12	19	281	6-26_15:59:11.0	4316.2				
518	620	299	433	181	331	507	337	10	14	13	6-26_15:59:12.0	4323.7				
504	690	271	430	178	305	514	216	9	10	85	6-26_15:59:13.0	4331.2				
254	390	136	241	111	210	367	94	9	21	261	6-26_15:59:14.0	4338.8				
470	705	247	395	161	294	501	178	12	12	343	6-26_15:59:15.0	4346.1				
542	767	290	460	193	335	547	254	12	22	327	6-26_15:59:16.0	4346.1				
393	659	224	394	159	294	510	184	11	7	95	6-26_15:59:17.0	4360.9				
495	662	269	426	178	320	517	322	13	13	356	6-26_15:59:18.0	4368.3				
347	497	164	289	114	219	399	124	9	26	299	6-26_15:59:19.0	4375.6				
419	424	221	392	142	264	425	399	12	10	202	6-26_15:59:20.0	4382.6				
359	615	194	354	144	270	474	139	15	14	293	6-26_15:59:21.0	4390.6				
538	764	307	478	198	351	562	240	10	21	347	6-26_15:59:22.0	4398.3				
467	775	243	428	184	318	551	173	11	15	335	6-26_15:59:23.0	4405.4				
529	795	297	476	201	348	580	264	12	10	62	6-26_15:59:24.0	4413.1				
381	473	190	310	140	240	412	129	10	19	229	6-26_15:59:25.0	4421				
472	656	224	385	151	261	474	163	8	20	318	6-26_15:59:26.0	4428.2				
427	494	233	343	157	284	451	217	12	10	213	6-26_15:59:27.0	4434.8				
334	562	176	323	148	245	438	119	15	18	287	6-26_15:59:28.0	4441.6				
485	751	254	429	193	315	542	199	10	22	322	6-26_15:59:29.0	4449.3				
339	587	178	339	144	267	473	136	11	6	306	6-26_15:59:30.0	4455.7				
489	622	254	393	168	304	488	213	9	27	253	6-26_15:59:31.0	4462.3				
529	638	278	407	173	326	510	243	10	20	241	6-26_15:59:32.0	4469.3				
525	646	287	468	190	344	528	398	11	9	123	6-26_15:59:33.0	4475.6				
386	564	185	324	137	256	439	118	10	17	309	6-26_15:59:34.0	4475.6				
444	610	212	357	154	253	424	194	7	21	337	6-26_15:59:35.0	4489.5				
274	353	146	241	117	212	373	113	9	9	200	6-26_15:59:36.0	4496.6				
515	736	282	458	184	329	549	261	9	16	12	6-26_15:59:37.0	4503.5				
369	513	202	319	132	252	419	195	11	10	5	6-26_15:59:38.0	4510.2				
403	526	218	339	163	271	445	171	12	20	354	6-26_15:59:39.0	4517.4				
605	788	301	552	200	353	606	473	14	6	76	6-26_15:59:40.0	4523.9				
472	655	219	372	155	268	437	164	8	18	351	6-26_15:59:41.0	4530.8				
444	673	197	378	150	260	461	153	11	14	314	6-26_15:59:42.0	4537.7				
225	347	123	225	103	188	357	92	16	24	255	6-26_15:59:43.0	4543.7				
295	483	159	290	123	232	435	123	11	21	270	6-26_15:59:44.0	4550.7				
355	622	182	341	153	260	488	143	10	12	295	6-26_15:59:45.0	4557.6				
568	679	305	443	204	360	537	317	10	36	243	6-26_15:59:46.0	4564.1				
551	793	316	512	212	356	591	367	11	14	108	6-26_15:59:47.0	4571.2				
409	607	206	359	155	263	468	134	9	20	22	6-26_15:59:48.0	4577.9				
502	645	299	473	184	336	531	490	11	2	121	6-26_15:59:49.0	4584.8				
285	442	146	268	120	225	391	100	10	19	269	6-26_15:59:50.0	4591.6				
483	603	248	391	157	268	419	225	9	23	11	6-26_15:59:51.0	4598.4				
525	821	293	481	209	356	592	240	15	22	42	6-26_15:59:52.0	4605.5				
443	743	227	420	170	307	537	171	11	21	313	6-26_15:59:53.0	4612.8				
395	608	208	376	156	264	467	172	11	14	310	6-26_15:59:54.0	4620.3				
521	698	302	450	192	325	541	293	15	5	59	6-26_15:59:55.0	4628.2				
454	635	204	367	150	253	412	167	6	19	347	6-26_15:59:56.0	4635.5				
420	583	204	342	131	244	437	166	11	19	317	6-26_15:59:57.0	4642.6				
307	385	170	267	128	230	395	170	13	4	246	6-26_15:59:58.0	4650.6				
525	740	288	443	188	331	537	204	7	23	353	6-26_15:59:59.0	4658				
215	342	122	227	96	191	368	93	11	10	345	6-26_16:0:0.0	4665.3				
501	743	286	456	194	347	572	311	12	4	81	6-26_16:0:1.0	4672.1				
456	680	230	390	172	294	502	180	9	15	322	6-26_16:0:2.0	4679.2				
503	606	264	413	191	342	505	362	9	24	217	6-26_16:0:3.0	4685.9				
504	637	285	440	181	330	523	391	9	20	133	6-26_16:0:4.0	4692.8				
512	770	279	438	186	326	535	202	12	13	25	6-26_16:0:5.0	4699.7				
439	712	238	412	159	307	534	165	14	15	59	6-26_16:0:6.0	4706.2				
268	395	147	255	110	208	388	117	15	15	21	6-26_16:0:7.0	4713.5				
469	663	236	397	164	281	481	183	14	6	68	6-26_16:0:8.0	4720.5				
364	312	193	251	126	230	348	297	10	29	212	6-26_16:0:9.0	4727.6				
579	760	316	549	201	350	591	465	14	16	112	6-26_16:0:10.0	4734.4				
532	834	279	471	201	343	575	203	13	17	36	6-26_16:0:11.0	4741.9				
527	811	294	484	204	343	592	228	13	20	65	6-26_16:0:12.0	4747.7				
487	784	253	446	184	325	575	186	10	19	39	6-26_16:0:13.0	4754.4				
425	697	224	386	163	288	506	139	10	18	335	6-26_16:0:14.0	4761.1				
385	514	180	332	132	240	423	132	11	13	333	6-26_16:0:15.0	4768				
339	392	182	274	129	237	395	162	13	15	53	6-26_16:0:16.0	4775.4				
282	333	161	243	122	219	376	156	9	21	230	6-26_16:0:17.0	4782.1				
519	765	266	427	176	317	522	198	12	6	18	6-26_16:0:18.0	4789				
543	818	309	492	205	358	589	286	13	17	67	6-26_16:0:19.0	4795.5				
510	762	279	463	189	338	576	300	11	20	60	6-26_16:0:20.0	4802.2				
295	383	152	250	111	210	368	95	13	10	213	6-26_16:0:21.0	4809				
357	454	164	294	110	208	398	134	10	13	3	6-26_16:0:22.0	4815.8				
181	268	111	183	78	172	338	83	10	20	217	6-26_16:0:23.0	4822.6				
356	420	193	290	137	238	419	174	10	17	323	6-26_16:0:24.0	4830.3				
518	707	272	417	181	309	496	221	10	10	19	6-26_16:0:25.0	4837.5				
596	811	316	535	214	361	590	311	13	16	80	6-26_16:0:26.0	4844.5				
568	794	306	534	191	348	594	403	10	20	104	6-26_16:0:27.0	4851				
332	435	149	272	114	206	360	108	12	9	314	6-26_16:0:28.0	4857.6				
338	470	158	289	116	219	397	105	11	15	352	6-26_16:0:29.0	4864.4				
267	450	147	274	120	216	438	110	9	22	269	6-26_16:0:30.0	4871				
504	597	293	405	174	318	496	320	14	14	139	6-26_16:0:31.0	4877.8				
491	727	276	440	186	327	536	212	12	14	63	6-26_16:0:32.0	4884.2				
539	729	340	481	209	368	576	434	13	21	102	6-26_16:0:33.0	4891.2				
579	803	356	533	221	388	609	457	12	19	100	6-26_16:0:34.0	4897.6				
549	829	311	511	205	355	618	268	10	19	73	6-26_16:0:35.0	4904				
371	647	200	373	153	281	509	146	11	21	344	6-26_16:0:36.0	4910.8				
238	339	134	233	111	209	362	99	13	14	78	6-26_16:0:37.0	4917.7				
421	504	222	328	150	259	443	173	12	17	132	6-26_16:0:38.0	4924.2				
529	625	288	452	187	338	531	545	13	21	144	6-26_16:0:39.0	4930.4				
534	646	294	453	200	330	542	521	9	20	131	6-26_16:0:40.0	4937.4				
600	742	313	572	200	341	589	418	10	21	115	6-26_16:0:41.0	4937.4				
447	740	248	426	179	320	553	171	14	15	51	6-26_16:0:42.0	4950.3				
383	626	184	351	143	257	458	119	13	15	3	6-26_16:0:43.0	4957				
243	398	130	262	114	226	420	83	12	20	333	6-26_16:0:44.0	4963.9				
203	328	110	209	98	195	361	88	11	20	248	6-26_16:0:45.0	4971.1				
463	547	265	369	174	288	472	232	11	18	136	6-26_16:0:46.0	4977.5				
523	731	307	469	192	343	559	286	12	14	80	6-26_16:0:47.0	4984.4				
534	718	351	500	215	397	578	486	11	20	101	6-26_16:0:48.0	4991.1				
646	783	344	639	217	353	598	556	11	21	159	6-26_16:0:49.0	4997.4				
523	812	286	477	196	347	599	240	10	19	67	6-26_16:0:50.0	5004				
261	434	147	271	118	224	411	100	16	14	329	6-26_16:0:51.0	5010.8				
189	296	106	195	95	183	359	80	12	19	223	6-26_16:0:52.0	5017.6				
230	376	126	234	99	202	378	110	10	19	256	6-26_16:0:53.0	5024.9				
478	574	265	415	171	316	502	362	13	14	19	6-26_16:0:54.0	5032.3				
411	601	194	330	145	258	446	145	7	16	316	6-26_16:0:55.0	5039.4				
627	778	318	591	204	358	631	502	13	13	13	6-26_16:0:56.0	5046.4				
355	461	155	290	118	220	379	111	11	7	328	6-26_16:0:57.0	5053.3				
346	622	193	362	151	274	503	140	11	19	359	6-26_16:0:58.0	5060.5				
448	749	235	426	179	309	558	175	7	22	303	6-26_16:0:59.0	5067.5				
533	720	300	444	196	331	532	256	12	6	72	6-26_16:1:0.0	5074.9				
388	682	194	386	159	288	527	138	8	17	309	6-26_16:1:1.0	5082				
611	737	311	538	213	373	587	392	14	4	38	6-26_16:1:2.0	5088.8				
401	567	175	350	131	239	417	142	10	5	330	6-26_16:1:3.0	5096.7				
646	784	344	610	216	375	609	601	6	22	6	6-26_16:1:4.0	5103.5				
342	494	182	310	134	241	434	127	14	5	74	6-26_16:1:5.0	5110.1				
464	605	226	380	161	287	478	178	12	8	84	6-26_16:1:6.0	5116.7				
271	496	145	287	124	239	431	110	8	22	281	6-26_16:1:7.0	5123.4				
238	360	133	238	122	217	377	87	10	19	253	6-26_16:1:8.0	5130.8				
547	730	327	468	209	362	562	368	10	17	92	6-26_16:1:9.0	5137.9				
518	816	272	460	181	330	565	195	12	10	19	6-26_16:1:10.0	5145.1				
554	821	320	501	221	376	616	362	11	21	80	6-26_16:1:11.0	5152.3				
415	653	225	399	162	297	532	193	12	20	50	6-26_16:1:12.0	5159.8				
407	535	196	346	144	247	455	154	13	9	72	6-26_16:1:13.0	5166.6				
267	301	145	224	112	198	359	139	12	22	276	6-26_16:1:14.0	5173.4				
511	513	274	382	167	309	476	531	12	18	45	6-26_16:1:15.0	5180				
576	830	322	497	216	368	617	231	13	12	57	6-26_16:1:16.0	5187.5				
548	834	300	504	211	363	635	221	13	16	50	6-26_16:1:17.0	5194.3				
601	824	370	531	213	383	619	469	9	23	85	6-26_16:1:18.0	5200.4				
241	396	135	249	114	220	413	97	13	16	302	6-26_16:1:19.0	5207.9				
448	636	208	378	149	268	475	156	10	17	358	6-26_16:1:20.0	5214.6				
502	653	280	411	178	324	511	264	13	7	85	6-26_16:1:21.0	5220.1				
301	349	165	245	123	232	390	117	9	23	240	6-26_16:1:22.0	5226.8				
538	687	310	457	190	342	556	434	10	18	107	6-26_16:1:23.0	5233.3				
440	716	228	395	164	293	519	148	10	10	329	6-26_16:1:24.0	5240.1				
502	800	265	459	183	334	577	172	12	11	15	6-26_16:1:25.0	5247.2				
607	720	324	474	205	366	560	422	7	21	256	6-26_16:1:26.0	5254.3				
508	788	273	479	196	343	594	248	7	19	315	6-26_16:1:27.0	5261.4				
492	677	262	410	172	301	512	194	11	5	65	6-26_16:1:28.0	5268.5				
516	677	262	412	165	299	481	221	9	7	18	6-26_16:1:29.0	5275.7				
374	423	207	301	146	257	427	219	8	23	292	6-26_16:1:30.0	5283.7				
567	770	327	505	205	376	601	355	12	13	93	6-26_16:1:31.0	5290.9				
439	705	220	393	170	290	509	138	8	16	323	6-26_16:1:32.0	5297.9				
449	540	234	355	162	273	461	202	8	17	270	6-26_16:1:33.0	5304.9				
387	633	205	358	158	280	501	140	11	17	307	6-26_16:1:34.0	5312.5				
520	786	277	455	204	336	583	196	12	7	34	6-26_16:1:35.0	5320				
522	644	265	429	171	317	507	306	7	17	265	6-26_16:1:36.0	5327.7				
409	624	199	362	148	262	488	139	12	8	28	6-26_16:1:37.0	5335.2				
433	599	219	353	149	261	465	166	13	5	50	6-26_16:1:38.0	5341.9				
404	385	212	285	137	249	380	332	11	24	255	6-26_16:1:39.0	5347.7				
579	825	317	501	207	368	631	229	12	6	44	6-26_16:1:40.0	5355				
567	834	330	519	223	382	646	252	11	17	56	6-26_16:1:41.0	5361.8				
572	692	370	500	207	366	568	503	9	18	128	6-26_16:1:42.0	5368.4				
597	712	341	475	200	367	559	429	8	20	104	6-26_16:1:43.0	5375.5				
423	702	218	412	168	305	552	158	10	16	22	6-26_16:1:44.0	5383				
444	654	209	381	162	266	488	154	10	14	350	6-26_16:1:45.0	5390.5				
341	421	175	286	129	230	426	144	15	16	61	6-26_16:1:46.0	5397.2				
433	415	237	316	136	271	418	342	11	20	321	6-26_16:1:47.0	5404.6				
542	732	328	459	201	348	554	377	13	16	81	6-26_16:1:48.0	5412.7				
618	832	380	546	237	402	650	494	13	20	90	6-26_16:1:49.0	5420.1				
641	772	403	528	232	407	615	522	10	19	111	6-26_16:1:50.0	5427.2				
635	821	374	528	223	388	607	486	10	19	132	6-26_16:1:51.0	5434.4				
303	500	168	300	130	250	447	105	13	17	294	6-26_16:1:52.0	5442.1				
388	516	181	325	138	237	451	144	11	11	88	6-26_16:1:53.0	5449.6				
333	369	181	273	127	225	404	175	12	20	12	6-26_16:1:54.0	5456.9				
399	416	213	304	143	254	413	234	9	20	250	6-26_16:1:55.0	5463.9				
573	793	324	497	207	365	611	253	13	13	60	6-26_16:1:56.0	5471.5				
578	833	316	529	215	393	660	241	12	15	51	6-26_16:1:57.0	5478.7				
624	699	335	516	202	368	580	622	9	19	142	6-26_16:1:58.0	5486.3				
602	791	360	524	218	380	620	452	10	19	103	6-26_16:1:59.0	5493.3				
245	367	134	238	110	212	408	97	16	10	52	6-26_16:2:0.0	5500.7				
351	434	166	271	127	211	399	114	10	18	95	6-26_16:2:1.0	5507.3				
438	527	230	336	146	267	452	206	13	19	135	6-26_16:2:2.0	5513.6				
638	619	296	588	182	329	547	710	12	19	167	6-26_16:2:3.0	5521.8				
553	703	340	470	208	369	567	460	9	19	98	6-26_16:2:4.0	5529				
547	825	290	496	211	354	630	194	12	13	20	6-26_16:2:5.0	5536.2				
438	747	238	441	179	335	593	158	11	17	357	6-26_16:2:6.0	5543.7				
529	809	295	491	202	357	613	246	12	14	60	6-26_16:2:7.0	5551.3				
453	641	256	402	175	310	510	280	10	22	230	6-26_16:2:8.0	5559.4				
504	671	244	399	164	281	453	206	10	5	33	6-26_16:2:9.0	5567.5				
354	332	200	258	131	223	358	214	8	24	291	6-26_16:2:10.0	5574.3				
572	806	321	501	210	371	614	274	13	5	52	6-26_16:2:11.0	5582.2				
529	826	279	491	199	361	618	181	11	11	11	6-26_16:2:12.0	5589.6				
694	773	335	661	197	353	598	692	9	19	69	6-26_16:2:13.0	5597.2				
584	812	334	528	216	379	637	255	7	19	39	6-26_16:2:14.0	5604.2				
374	513	177	314	139	230	424	125	10	12	320	6-26_16:2:15.0	5611.8				
447	638	202	360	153	259	480	160	10	9	52	6-26_16:2:16.0	5619.6				
243	414	128	246	111	219	410	107	7	20	255	6-26_16:2:17.0	5625.4				
485	588	278	389	174	312	498	305	12	12	55	6-26_16:2:18.0	5632.9				
602	819	337	493	212	374	598	296	13	8	43	6-26_16:2:19.0	5640.9				
642	819	337	605	209	364	621	384	12	22	122	6-26_16:2:20.0	5647.4				
402	588	188	332	135	246	446	128	12	9	356	6-26_16:2:21.0	5654				
322	506	165	303	137	253	446	102	12	17	331	6-26_16:2:22.0	5661.6				
331	615	177	349	148	279	513	140	9	21	293	6-26_16:2:23.0	5668.8				
554	643	295	493	180	332	529	503	12	10	119	6-26_16:2:24.0	5676.5				
584	820	302	503	207	369	626	224	11	16	342	6-26_16:2:25.0	5684				
545	819	299	502	204	363	631	209	13	5	13	6-26_16:2:26.0	5690.5				
472	514	241	339	170	282	458	174	6	22	251	6-26_16:2:27.0	5698				
637	727	343	592	209	360	596	612	8	17	62	6-26_16:2:28.0	5705				
451	719	231	402	174	315	542	152	13	14	325	6-26_16:2:29.0	5711.4				
274	438	152	278	122	233	430	102	14	13	29	6-26_16:2:30.0	5719.4				
523	814	261	475	195	339	611	203	6	19	313	6-26_16:2:31.0	5726.8				
577	821	313	529	213	376	651	240	11	9	22	6-26_16:2:32.0	5734.3				
300	382	153	254	128	229	397	134	10	20	225	6-26_16:2:33.0	5742.2				
714	776	359	671	249	416	685	593	12	16	357	6-26_16:2:34.0	5749.9				
503	817	283	471	191	353	610	171	14	10	24	6-26_16:2:35.0	5757.5				
500	803	259	436	188	328	562	148	11	16	334	6-26_16:2:36.0	5766				
386	622	218	369	165	286	535	143	14	17	71	6-26_16:2:37.0	5772.8				
294	472	152	286	124	227	448	127	10	21	262	6-26_16:2:38.0	5780				
524	675	288	431	182	317	526	285	11	10	87	6-26_16:2:39.0	5780				
495	699	258	426	184	321	533	209	10	11	58	6-26_16:2:40.0	5795.1				
622	608	275	540	170	314	521	723	10	20	51	6-26_16:2:41.0	5802.9				
564	768	307	494	208	375	619	350	13	13	89	6-26_16:2:42.0	5809.9				
413	620	179	356	128	234	432	160	9	10	328	6-26_16:2:43.0	5817.1				
494	780	267	462	198	339	600	186	11	21	20	6-26_16:2:44.0	5824.9				
445	745	237	434	191	330	588	173	10	17	347	6-26_16:2:45.0	5832.8				
370	497	174	313	136	243	431	123	12	9	347	6-26_16:2:46.0	5840.6				
357	371	199	270	131	231	392	206	11	19	279	6-26_16:2:47.0	5848.9				
237	378	127	222	115	206	391	96	8	19	260	6-26_16:2:48.0	5857.6				
497	603	260	392	174	307	499	257	10	17	117	6-26_16:2:49.0	5865.5				
606	834	315	551	216	393	673	234	14	5	38	6-26_16:2:50.0	5873.3				
537	782	301	479	209	354	597	254	11	25	102	6-26_16:2:51.0	5881.2				
436	730	230	400	171	311	549	138	11	19	340	6-26_16:2:52.0	5888.6				
290	393	157	255	115	219	390	106	13	11	111	6-26_16:2:53.0	5896.2				
217	332	116	217	99	192	376	106	10	20	238	6-26_16:2:54.0	5903.6				
513	571	269	415	164	319	508	404	11	16	339	6-26_16:2:55.0	5911.2				
561	835	306	528	220	380	661	210	10	16	22	6-26_16:2:56.0	5918.6				
354	642	213	390	158	302	560	139	11	15	34	6-26_16:2:57.0	5925.9				
261	436	144	274	118	220	433	109	9	21	23	6-26_16:2:58.0	5933.6				
394	471	186	299	138	243	416	138	13	20	249	6-26_16:2:59.0	5941.3				
574	560	266	505	172	301	501	590	15	13	160	6-26_16:3:0.0	5949.1				
259	337	134	225	107	203	369	126	10	19	246	6-26_16:3:1.0	5956.9				
464	767	247	444	178	330	590	175	11	12	311	6-26_16:3:2.0	5964.1				
702	812	340	644	239	382	697	607	11	25	135	6-26_16:3:3.0	5971.6				
508	735	289	454	190	347	576	281	12	18	103	6-26_16:3:4.0	5978.6				
367	541	175	313	143	258	434	103	14	16	346	6-26_16:3:5.0	5986.2				
234	375	128	230	107	195	388	99	13	20	244	6-26_16:3:6.0	5993.1				
217	317	115	211	100	182	365	105	9	19	224	6-26_16:3:7.0	6000.7				
351	390	180	273	130	241	402	196	10	18	227	6-26_16:3:8.0	6008.2				
565	781	323	512	219	379	625	321	10	16	33	6-26_16:3:9.0	6015.9				
322	518	164	312	145	256	458	130	8	18	276	6-26_16:3:10.0	6023.8				
575	760	317	510	210	380	620	366	11	7	88	6-26_16:3:11.0	6031.3				
349	437	191	293	135	248	438	212	11	14	344	6-26_16:3:12.0	6039.1				
579	836	311	535	220	385	669	212	10	11	10	6-26_16:3:13.0	6046.9				
345	625	178	350	152	279	514	141	8	17	291	6-26_16:3:14.0	6054.8				
367	501	175	290	133	243	421	121	5	15	293	6-26_16:3:15.0	6062.5				
558	824	297	503	202	356	622	240	11	7	26	6-26_16:3:16.0	6069.1				
410	536	203	323	140	244	449	155	9	5	32	6-26_16:3:17.0	6076.4				
523	740	274	443	186	323	560	202	7	12	327	6-26_16:3:18.0	6084				
423	694	231	417	181	322	576	153	6	19	355	6-26_16:3:19.0	6090.1				
425	557	205	341	157	267	459	173	11	15	274	6-26_16:3:20.0	6097.5				
585	805	326	502	216	374	641	235	7	14	54	6-26_16:3:21.0	6104.8				
496	794	269	479	204	353	632	185	10	18	20	6-26_16:3:22.0	6111.5				
309	503	160	304	134	253	458	110	11	17	344	6-26_16:3:23.0	6118.6				
334	489	161	299	130	250	421	107	10	18	286	6-26_16:3:24.0	6125.6				
257	406	138	251	124	222	410	97	10	18	252	6-26_16:3:25.0	6133				
448	489	234	343	160	288	454	254	10	19	247	6-26_16:3:26.0	6140.3				
555	799	312	504	202	368	623	276	10	18	22	6-26_16:3:27.0	6147.8				
408	545	189	326	140	245	434	141	10	12	23	6-26_16:3:28.0	6155.1				
535	708	292	447	188	329	568	233	10	9	24	6-26_16:3:29.0	6161				
301	413	141	262	125	226	412	113	10	26	257	6-26_16:3:30.0	6168.2				
392	431	211	304	147	262	430	228	9	18	228	6-26_16:3:31.0	6174.9				
562	684	308	458	203	349	569	342	7	19	84	6-26_16:3:32.0	6182				
404	548	188	328	131	240	436	139	11	10	5	6-26_16:3:33.0	6189				
511	695	271	435	185	318	551	222	9	9	18	6-26_16:3:34.0	6196.1				
347	519	176	316	139	249	452	169	9	22	257	6-26_16:3:35.0	6203.7				
439	744	222	406	178	317	564	172	4	19	298	6-26_16:3:36.0	6210.4				
558	784	290	506	196	343	598	293	13	3	49	6-26_16:3:37.0	6217.4				
529	797	278	465	194	348	590	225	13	5	39	6-26_16:3:38.0	6223.8				
428	561	203	340	143	255	452	160	10	8	321	6-26_16:3:39.0	6231.3				
630	831	337	556	234	410	700	229	5	18	5	6-26_16:3:40.0	6238.5				
482	582	273	399	180	314	506	331	9	11	124	6-26_16:3:41.0	6246.2				
558	820	298	521	206	385	659	197	9	17	342	6-26_16:3:42.0	6253.1				
485	632	243	397	165	296	499	206	5	20	23	6-26_16:3:43.0	6260.4				
583	763	324	491	206	366	587	350	10	15	269	6-26_16:3:44.0	6268				
430	536	228	345	154	271	460	203	14	8	4	6-26_16:3:45.0	6274.4				
501	638	276	415	179	310	532	281	12	9	91	6-26_16:3:46.0	6281.9				
338	477	161	278	127	235	415	123	7	19	283	6-26_16:3:47.0	6289.6				
308	515	154	295	133	243	462	124	11	10	274	6-26_16:3:48.0	6296.9				
582	821	314	528	221	386	667	215	10	17	10	6-26_16:3:49.0	6304.5				
566	552	284	423	194	322	490	510	7	22	255	6-26_16:3:50.0	6311.5				
404	576	221	363	152	278	490	203	13	8	32	6-26_16:3:51.0	6318.2				
579	807	313	523	207	373	651	211	4	16	6	6-26_16:3:52.0	6325.2				
305	414	153	258	111	216	403	122	10	13	52	6-26_16:3:53.0	6331.9				
586	833	312	537	224	388	674	242	11	6	40	6-26_16:3:54.0	6339.4				
476	516	227	394	153	282	469	392	11	20	294	6-26_16:3:55.0	6347				
399	586	196	321	145	265	450	129	9	18	298	6-26_16:3:56.0	6354.4				
