IR940	IR830	RED	YELLOW	GREEN	BLUE	VIOLET400	UV351	Pitch	Roll	Heading	GPSTime	Altitude
98	9	47	63	16	28	40	48	359	8	333	7-1_13:54:17.0	0
111	20	45	75	28	32	49	63	0	8	333	7-1_13:54:18.0	0
121	4	31	68	32	38	68	47	357	1	334	7-1_13:54:19.0	0
103	23	49	66	22	30	52	58	359	6	342	7-1_13:54:20.0	0
117	7	36	78	29	26	33	72	358	7	341	7-1_13:54:21.0	0
106	11	41	79	24	28	54	65	359	6	342	7-1_13:54:22.0	0
117	21	38	66	18	28	50	62	359	8	342	7-1_13:54:23.0	0
109	13	42	77	26	31	54	64	359	6	342	7-1_13:54:24.0	0
116	10	42	71	19	32	49	63	359	7	342	7-1_13:54:25.0	0
117	15	37	71	13	23	37	64	359	6	343	7-1_13:54:26.0	0
113	14	43	71	19	26	46	63	359	6	343	7-1_13:54:27.0	0
108	13	44	67	21	30	47	58	359	6	342	7-1_13:54:28.0	0
114	17	40	77	24	29	54	65	359	6	342	7-1_13:54:29.0	0
120	23	32	62	19	32	39	55	359	8	341	7-1_13:54:30.0	0
114	19	35	70	23	36	43	55	359	7	343	7-1_13:54:31.0	0
113	17	36	79	28	39	52	61	359	5	344	7-1_13:54:32.0	0
107	13	40	77	25	35	48	56	359	5	344	7-1_13:54:33.0	0
93	11	38	64	17	28	43	55	6	10	346	7-1_13:54:34.0	0
107	16	35	68	18	28	51	64	359	7	340	7-1_13:54:35.0	0
97	10	37	70	18	29	49	62	0	3	343	7-1_13:54:36.0	0
102	6	42	78	24	28	55	69	0	2	346	7-1_13:54:37.0	0
102	19	42	74	21	38	47	66	0	3	349	7-1_13:54:38.0	0
114	16	51	84	22	34	59	67	359	1	351	7-1_13:54:39.0	0
103	11	40	75	22	43	46	70	0	0	351	7-1_13:54:40.0	0
113	16	48	82	24	37	55	68	357	3	350	7-1_13:54:41.0	0
125	12	52	76	9	41	41	68	358	2	350	7-1_13:54:42.0	0
111	16	43	81	25	31	57	57	358	5	347	7-1_13:54:43.0	0
120	14	42	75	22	39	53	61	357	6	347	7-1_13:54:44.0	0
114	17	44	86	29	28	59	60	357	6	346	7-1_13:54:45.0	0
121	17	46	75	24	40	61	62	357	6	344	7-1_13:54:46.0	0
119	15	41	68	26	34	59	54	358	4	346	7-1_13:54:47.0	0
115	14	41	75	27	32	57	61	358	5	345	7-1_13:54:48.0	0
121	14	44	83	19	41	56	68	358	3	344	7-1_13:54:49.0	0
117	28	63	85	33	40	69	76	357	358	352	7-1_13:54:50.0	0
110	28	62	81	30	34	61	77	358	2	356	7-1_13:54:51.0	0
126	18	56	95	27	43	61	81	358	2	357	7-1_13:54:52.0	0
108	25	51	84	38	34	49	82	358	4	357	7-1_13:54:53.0	0
117	20	49	95	23	47	67	76	358	3	357	7-1_13:54:54.0	0
120	21	52	96	24	49	68	78	357	3	358	7-1_13:54:55.0	0
104	18	45	83	18	43	59	71	1	12	359	7-1_13:54:56.0	0
99	18	30	86	9	41	55	67	6	10	344	7-1_13:54:57.0	0
104	11	37	76	29	29	44	57	359	8	345	7-1_13:54:58.0	0
87	13	34	63	17	29	38	58	6	3	345	7-1_13:54:59.0	0
114	22	37	85	14	28	41	59	359	5	344	7-1_13:55:0.0	0
112	15	37	88	21	28	45	64	357	4	343	7-1_13:55:1.0	0
106	10	42	72	25	32	49	60	0	3	343	7-1_13:55:2.0	0
108	8	47	66	23	41	59	67	0	6	345	7-1_13:55:3.0	0
131	16	55	90	29	49	68	72	354	1	339	7-1_13:55:4.0	0
133	17	59	94	23	41	67	69	354	348	339	7-1_13:55:5.0	0
110	9	55	79	15	32	55	62	357	1	345	7-1_13:55:6.0	0
114	18	44	76	23	40	49	62	358	1	346	7-1_13:55:7.0	0
106	12	49	77	20	38	55	68	358	2	347	7-1_13:55:8.0	0
117	18	44	81	24	39	56	68	358	1	346	7-1_13:55:9.0	0
105	10	46	81	23	37	53	61	359	2	346	7-1_13:55:10.0	0
115	16	45	80	24	38	56	64	358	2	345	7-1_13:55:11.0	0
109	11	43	85	32	44	46	56	358	2	346	7-1_13:55:12.0	0
111	11	52	86	27	43	53	64	358	2	346	7-1_13:55:13.0	0
117	17	47	78	17	38	57	64	358	2	346	7-1_13:55:14.0	0
114	17	45	78	22	36	54	58	358	2	346	7-1_13:55:15.2	0
121	18	50	81	21	38	59	64	359	2	345	7-1_13:55:16.0	0
101	9	51	83	27	40	45	59	0	4	347	7-1_13:55:17.0	0
107	18	36	75	17	32	57	69	359	1	345	7-1_13:55:18.0	0
109	13	48	82	26	39	45	62	0	3	347	7-1_13:55:19.0	0
112	18	42	78	24	41	49	63	0	1	345	7-1_13:55:20.0	0
116	17	51	85	30	43	43	67	0	1	345	7-1_13:55:21.0	0
103	10	37	73	17	37	51	63	359	358	344	7-1_13:55:22.0	0
114	14	50	91	20	42	76	54	210	264	336	7-1_13:55:23.0	0
116	16	53	98	26	53	72	67	356	276	333	7-1_13:55:24.0	0
117	8	51	93	20	44	71	67	356	277	333	7-1_13:55:25.0	0
123	9	53	94	17	40	67	66	357	277	333	7-1_13:55:26.0	0
115	17	62	90	22	44	70	65	356	277	333	7-1_13:55:26.96	0
102	15	51	92	28	43	67	66	358	278	333	7-1_13:55:28.0	0
111	20	58	107	28	36	75	62	358	279	332	7-1_13:55:29.0	0
106	16	58	97	25	46	72	70	357	278	333	7-1_13:55:30.0	0
110	19	59	96	23	47	71	74	356	279	333	7-1_13:55:31.0	0
105	15	48	79	28	32	62	67	357	309	329	7-1_13:55:32.0	0
120	14	44	78	28	37	58	60	358	2	346	7-1_13:55:33.0	0
123	18	53	94	23	45	59	69	355	1	344	7-1_13:55:34.0	0
120	22	54	81	28	43	65	61	356	2	346	7-1_13:55:35.0	0
113	14	42	81	22	36	54	57	359	0	345	7-1_13:55:36.0	0
105	18	47	79	16	37	49	61	0	3	346	7-1_13:55:37.0	0
112	21	53	80	26	38	58	65	358	2	347	7-1_13:55:38.0	0
119	21	48	86	31	37	52	78	356	4	347	7-1_13:55:39.0	0
102	21	50	70	31	30	59	64	0	3	346	7-1_13:55:40.0	0
114	15	48	82	23	37	57	69	359	4	347	7-1_13:55:41.0	0
118	16	53	79	28	33	53	75	359	3	347	7-1_13:55:42.0	0
113	15	43	84	22	38	55	71	359	4	347	7-1_13:55:43.0	0
124	9	50	83	24	32	51	77	359	4	346	7-1_13:55:44.0	0
114	14	47	80	30	31	45	70	0	5	347	7-1_13:55:45.0	0
115	18	51	76	29	37	50	66	359	4	347	7-1_13:55:46.0	0
115	15	47	80	25	41	57	69	359	4	347	7-1_13:55:47.0	0
113	8	45	84	30	27	42	69	359	4	347	7-1_13:55:48.0	0
118	9	49	77	29	36	52	65	359	4	347	7-1_13:55:49.0	0
108	19	41	88	18	38	52	70	359	4	347	7-1_13:55:50.0	0
110	8	47	79	30	36	59	65	359	4	347	7-1_13:55:51.0	0
113	16	44	84	22	35	51	69	359	5	347	7-1_13:55:52.0	0
118	16	47	87	16	39	49	74	359	4	347	7-1_13:55:53.0	0
118	15	50	84	15	40	45	72	0	4	348	7-1_13:55:54.0	0
107	8	50	79	23	44	57	75	359	5	347	7-1_13:55:55.0	0
120	11	54	80	19	41	52	73	359	4	348	7-1_13:55:56.0	0
105	9	50	80	27	43	60	73	0	4	347	7-1_13:55:57.0	0
114	26	32	89	35	42	64	74	359	4	347	7-1_13:55:58.0	0
114	24	35	86	35	44	64	77	359	4	347	7-1_13:55:59.0	0
116	25	34	85	33	41	58	74	359	6	351	7-1_13:56:0.0	0
106	10	49	79	17	33	46	65	0	5	352	7-1_13:56:1.0	0
104	8	50	78	12	28	45	64	359	5	352	7-1_13:56:2.0	0
115	16	44	89	25	34	58	74	0	6	351	7-1_13:56:3.0	0
114	20	38	76	21	37	43	63	0	5	352	7-1_13:56:4.0	0
113	17	43	87	27	38	55	73	0	5	351	7-1_13:56:5.0	0
107	12	50	80	21	36	55	71	0	5	352	7-1_13:56:6.0	0
117	22	39	78	21	38	47	65	0	5	351	7-1_13:56:7.0	0
110	14	46	84	25	38	50	68	0	5	351	7-1_13:56:8.0	0
105	10	48	89	31	42	50	69	0	5	351	7-1_13:56:9.0	0
113	18	48	75	11	28	55	77	0	5	352	7-1_13:56:10.0	0
106	12	45	83	22	36	51	70	0	5	352	7-1_13:56:11.0	0
104	8	48	88	31	42	44	67	0	6	352	7-1_13:56:12.0	0
122	21	51	84	21	40	58	70	359	6	352	7-1_13:56:13.0	0
123	16	47	89	22	40	66	81	355	0	348	7-1_13:56:14.0	0
137	22	52	89	24	45	62	73	355	0	347	7-1_13:56:15.0	0
119	9	59	98	35	46	54	79	357	0	347	7-1_13:56:16.0	0
124	13	54	92	28	45	64	75	355	1	348	7-1_13:56:17.0	0
124	15	46	84	19	40	68	70	355	3	347	7-1_13:56:18.0	0
133	18	54	90	28	45	60	72	356	4	348	7-1_13:56:19.0	0
124	6	54	87	19	29	73	71	357	2	347	7-1_13:56:20.0	0
128	27	54	94	38	44	58	82	357	0	345	7-1_13:56:21.0	0
111	13	39	76	20	42	48	67	358	3	347	7-1_13:56:22.0	0
124	18	54	89	24	32	62	68	357	1	347	7-1_13:56:23.0	0
123	17	49	86	24	43	59	72	357	2	347	7-1_13:56:24.0	0
111	12	41	74	22	41	46	71	358	1	344	7-1_13:56:25.0	0
115	21	46	85	34	29	61	66	359	2	343	7-1_13:56:26.0	0
115	11	45	74	16	34	44	64	359	1	343	7-1_13:56:27.0	0
103	8	35	69	22	37	38	69	0	1	343	7-1_13:56:28.0	0
99	21	43	83	27	27	50	61	0	1	343	7-1_13:56:29.0	0
110	5	32	57	18	41	34	68	0	2	343	7-1_13:56:30.0	0
104	15	41	72	18	31	42	61	0	3	344	7-1_13:56:31.0	0
105	20	47	79	15	34	42	65	357	4	344	7-1_13:56:32.0	0
109	8	34	57	23	26	51	48	357	5	344	7-1_13:56:33.0	0
95	16	40	43	17	30	38	44	359	4	341	7-1_13:56:34.0	0
97	17	43	43	26	26	63	30	358	1	350	7-1_13:56:35.0	0
101	12	36	53	18	20	45	35	0	1	351	7-1_13:56:36.0	0
97	15	40	66	12	28	44	44	0	1	352	7-1_13:56:37.0	0
103	12	33	65	22	20	38	49	0	1	349	7-1_13:56:38.0	0
91	17	37	56	21	26	42	43	0	2	350	7-1_13:56:39.0	0
103	12	34	64	19	32	47	48	0	2	350	7-1_13:56:40.0	0
98	16	33	57	25	25	41	53	0	2	343	7-1_13:56:41.0	0
124	16	40	66	26	20	50	35	358	359	1	7-1_13:56:42.0	0
118	18	50	78	16	41	62	49	358	3	357	7-1_13:56:43.0	0
107	18	45	73	22	32	53	58	359	1	354	7-1_13:56:44.0	0
99	24	47	67	30	32	48	63	359	1	354	7-1_13:56:45.0	0
110	20	49	88	24	41	56	68	0	2	354	7-1_13:56:46.0	0
114	23	55	78	32	35	47	68	359	3	352	7-1_13:56:47.0	0
117	15	45	85	25	34	51	74	0	4	348	7-1_13:56:48.0	0
113	13	42	80	23	32	49	72	359	3	345	7-1_13:56:49.0	0
112	14	46	74	24	35	49	61	359	3	341	7-1_13:56:50.0	0
106	13	39	78	23	32	45	66	0	3	341	7-1_13:56:51.0	0
107	7	44	69	33	28	41	59	0	2	341	7-1_13:56:52.0	0
112	18	44	76	20	42	54	69	359	1	341	7-1_13:56:53.0	0
96	16	31	82	23	26	39	60	1	3	334	7-1_13:56:54.0	0
112	21	43	79	10	37	44	72	3	5	339	7-1_13:56:55.0	0
114	19	38	83	31	34	56	65	357	5	340	7-1_13:56:56.0	0
111	13	41	77	34	40	63	64	357	5	340	7-1_13:56:57.0	0
118	19	43	83	29	40	60	63	357	5	341	7-1_13:56:58.0	0
117	15	43	80	24	39	55	61	358	4	338	7-1_13:56:59.0	0
120	16	50	76	25	43	59	66	357	4	336	7-1_13:57:0.0	0
117	15	50	76	25	48	53	63	356	5	336	7-1_13:57:1.0	0
131	22	46	87	26	39	63	64	356	5	335	7-1_13:57:2.0	0
106	15	42	72	23	40	47	61	359	0	334	7-1_13:57:3.0	0
106	11	40	77	24	39	52	55	359	1	333	7-1_13:57:4.0	0
109	18	39	73	23	40	53	63	359	1	333	7-1_13:57:5.0	0
106	12	44	80	21	35	56	67	359	1	334	7-1_13:57:6.0	0
105	12	43	78	26	41	50	60	359	2	334	7-1_13:57:7.0	0
106	13	43	76	23	38	52	57	359	1	333	7-1_13:57:8.0	0
110	16	39	76	26	42	49	61	359	0	332	7-1_13:57:9.0	0
109	11	51	81	29	43	49	60	359	1	333	7-1_13:57:10.0	0
111	17	44	71	18	31	50	62	359	2	334	7-1_13:57:11.0	0
112	19	40	72	18	36	53	62	359	2	333	7-1_13:57:12.0	0
118	19	47	79	25	42	52	60	359	3	334	7-1_13:57:13.0	0
105	9	49	84	30	46	46	59	358	3	334	7-1_13:57:14.0	0
90	7	35	70	17	29	44	69	1	0	332	7-1_13:57:15.0	0
85	8	30	64	14	28	41	58	3	0	334	7-1_13:57:16.0	0
103	18	41	72	23	37	36	58	0	0	335	7-1_13:57:17.0	0
99	21	46	76	32	37	48	63	1	337	323	7-1_13:57:18.0	0
99	1	40	61	3	24	46	50	2	322	322	7-1_13:57:19.0	0
110	5	40	71	12	35	49	57	0	1	342	7-1_13:57:20.0	0
31	2	17	28	9	6	7	18	34	0	343	7-1_13:57:21.0	0
32	9	12	29	12	15	7	32	28	1	351	7-1_13:57:22.0	0
110	15	47	82	17	29	49	66	356	1	355	7-1_13:57:23.0	0
104	11	39	71	12	33	42	59	0	2	351	7-1_13:57:24.0	0
95	19	37	78	24	33	45	66	2	1	352	7-1_13:57:25.0	0
107	14	47	82	21	34	48	67	1	1	347	7-1_13:57:26.0	0
113	20	49	88	31	31	48	76	2	3	348	7-1_13:57:27.0	0
100	6	48	87	23	30	47	74	1	3	350	7-1_13:57:28.0	0
96	10	42	82	24	33	43	71	2	2	350	7-1_13:57:29.0	0
102	16	40	75	13	27	55	70	1	2	353	7-1_13:57:30.0	0
109	22	27	72	18	30	37	66	1	2	356	7-1_13:57:31.0	0
107	14	41	82	26	37	48	67	0	2	356	7-1_13:57:32.0	0
114	21	34	79	29	41	44	58	0	2	355	7-1_13:57:33.0	0
114	21	31	78	29	43	47	67	0	2	355	7-1_13:57:34.0	0
113	17	43	85	18	28	45	62	1	2	355	7-1_13:57:35.0	0
102	8	47	71	15	36	42	67	0	2	356	7-1_13:57:36.0	0
105	15	43	77	20	38	51	74	1	2	355	7-1_13:57:37.0	0
106	9	41	78	29	29	42	64	0	2	355	7-1_13:57:38.0	0
111	23	46	75	22	39	53	64	1	1	355	7-1_13:57:39.0	0
99	22	41	77	25	36	50	62	0	0	355	7-1_13:57:40.0	0
111	11	35	86	16	41	53	66	0	2	357	7-1_13:57:41.0	0
98	27	55	71	24	34	61	59	0	1	356	7-1_13:57:42.0	0
110	8	34	79	26	29	43	66	1	1	356	7-1_13:57:43.0	0
102	16	43	83	20	33	42	71	1	1	356	7-1_13:57:44.0	0
105	14	37	73	24	30	45	62	2	19	0	7-1_13:57:45.0	0
112	21	37	83	18	32	34	47	0	81	35	7-1_13:57:46.0	0
114	16	47	93	26	37	33	41	358	86	34	7-1_13:57:47.0	0
116	21	45	90	24	36	35	40	358	86	34	7-1_13:57:48.0	0
103	25	27	72	8	31	40	33	0	88	35	7-1_13:57:49.0	0
114	27	44	93	25	39	34	40	58	114	41	7-1_13:57:50.0	0
109	17	42	90	16	34	48	29	186	176	18	7-1_13:57:51.0	0
91	24	33	72	16	38	31	22	184	291	5	7-1_13:57:52.0	0
90	4	35	60	6	26	41	21	232	229	338	7-1_13:57:53.0	0
84	11	37	67	19	25	49	27	181	234	336	7-1_13:57:54.0	0
74	8	26	57	12	33	40	23	181	240	335	7-1_13:57:55.0	0
82	10	39	62	9	28	41	25	335	255	332	7-1_13:57:56.0	0
81	11	31	63	20	32	50	32	233	257	330	7-1_13:57:57.0	0
73	16	41	74	21	23	57	24	181	260	330	7-1_13:57:58.0	0
76	20	47	79	19	20	62	22	182	263	328	7-1_13:57:59.0	0
78	16	41	70	22	27	60	29	182	267	322	7-1_13:58:0.0	0
76	13	37	65	24	32	61	38	183	269	319	7-1_13:58:1.0	0
91	15	46	70	17	32	64	29	332	272	317	7-1_13:58:2.0	0
110	7	37	67	16	42	57	39	185	259	325	7-1_13:58:3.0	0
112	16	39	84	16	43	44	31	188	234	9	7-1_13:58:4.0	0
102	22	37	89	23	31	49	27	186	333	18	7-1_13:58:5.0	0
98	13	36	78	12	37	39	32	187	232	14	7-1_13:58:6.0	0
98	26	46	77	9	43	37	33	187	232	15	7-1_13:58:7.0	0
95	23	41	82	11	39	44	30	185	284	13	7-1_13:58:8.0	0
103	35	57	92	28	37	68	36	187	287	29	7-1_13:58:9.0	0
117	9	42	104	15	49	64	38	184	227	354	7-1_13:58:10.0	0
110	18	49	100	20	44	61	35	185	215	3	7-1_13:58:11.0	0
112	17	52	97	23	39	62	40	185	216	2	7-1_13:58:12.0	0
109	23	54	93	22	45	65	30	184	219	1	7-1_13:58:13.0	0
113	17	53	90	27	43	67	31	184	220	0	7-1_13:58:14.0	0
112	12	52	95	23	38	63	43	184	230	353	7-1_13:58:15.0	0
107	23	61	91	26	38	67	46	183	238	351	7-1_13:58:16.0	0
108	14	47	93	29	36	55	51	285	251	344	7-1_13:58:17.0	0
112	10	47	85	27	40	69	50	2	282	320	7-1_13:58:18.0	0
139	13	46	80	18	41	44	80	359	320	335	7-1_13:58:19.0	0
133	13	46	88	21	34	50	77	2	313	330	7-1_13:58:20.0	0
112	12	41	85	29	28	55	68	5	343	349	7-1_13:58:21.0	0
126	21	55	102	26	39	59	79	358	2	352	7-1_13:58:22.0	0
136	8	41	99	36	32	56	81	358	2	353	7-1_13:58:23.0	0
127	18	45	99	32	35	56	70	0	30	18	7-1_13:58:24.0	0
129	34	51	107	19	45	44	64	359	78	47	7-1_13:58:25.0	0
129	44	60	107	12	54	41	67	359	85	47	7-1_13:58:26.0	0
103	22	35	84	18	32	38	32	336	137	41	7-1_13:58:27.0	0
106	17	38	89	18	36	50	29	186	25	20	7-1_13:58:28.0	0
104	21	40	90	17	37	48	29	185	178	14	7-1_13:58:29.0	0
105	22	45	85	14	42	49	31	186	334	19	7-1_13:58:30.0	0
107	20	41	90	16	36	46	34	184	125	24	7-1_13:58:31.0	0
106	18	38	83	24	32	52	29	185	284	17	7-1_13:58:32.0	0
88	20	38	68	16	32	42	20	233	125	14	7-1_13:58:33.0	0
49	11	24	41	7	20	20	12	155	159	15	7-1_13:58:34.0	0
139	34	50	108	16	43	49	53	285	90	42	7-1_13:58:35.0	0
142	39	43	115	25	40	55	52	333	90	44	7-1_13:58:36.0	0
91	23	26	61	11	30	31	16	233	25	353	7-1_13:58:37.0	0
84	18	28	67	20	34	34	18	183	25	351	7-1_13:58:38.0	0
89	22	31	61	8	23	40	24	254	324	352	7-1_13:58:39.0	0
94	28	25	58	6	22	42	28	228	0	353	7-1_13:58:40.0	0
97	21	38	74	19	37	43	19	186	183	349	7-1_13:58:41.0	0
105	23	29	68	17	30	34	27	259	133	1	7-1_13:58:42.0	0
101	13	39	75	23	35	32	37	23	88	13	7-1_13:58:43.0	0
129	21	51	74	14	33	71	67	358	11	323	7-1_13:58:44.0	0
131	28	33	65	11	27	63	69	358	9	323	7-1_13:58:45.0	0
120	15	45	89	29	40	50	67	358	4	341	7-1_13:58:46.0	0
121	11	53	91	28	40	58	72	357	334	333	7-1_13:58:47.0	0
135	25	50	81	21	45	69	59	355	308	320	7-1_13:58:48.0	0
122	13	50	88	28	39	58	75	357	359	339	7-1_13:58:49.0	0
120	11	50	90	29	40	55	69	357	359	339	7-1_13:58:50.0	0
128	22	52	89	31	45	51	76	357	359	339	7-1_13:58:51.0	0
124	28	47	87	34	48	48	76	358	0	339	7-1_13:58:52.0	0
123	12	49	86	22	36	63	75	357	0	339	7-1_13:58:53.0	0
120	22	45	83	29	48	49	74	357	0	339	7-1_13:58:54.0	0
122	15	46	82	27	44	55	76	357	359	339	7-1_13:58:55.0	0
131	14	50	80	19	46	52	77	357	359	338	7-1_13:58:56.0	0
135	21	59	96	27	43	71	74	354	0	341	7-1_13:58:57.0	0
136	11	45	86	35	39	70	71	355	1	342	7-1_13:58:58.0	0
123	18	46	88	22	35	38	59	357	79	23	7-1_13:58:59.0	0
126	23	41	86	17	35	44	48	210	92	30	7-1_13:59:0.0	0
121	23	43	85	21	32	40	48	334	88	35	7-1_13:59:1.0	0
126	30	45	92	24	37	36	37	186	144	26	7-1_13:59:2.0	0
110	15	30	73	7	38	31	22	236	152	24	7-1_13:59:3.0	0
123	43	56	130	40	47	83	47	187	183	25	7-1_13:59:4.0	0
130	23	53	108	20	52	70	44	186	346	18	7-1_13:59:5.0	0
122	21	58	101	22	48	78	39	184	233	345	7-1_13:59:6.0	0
112	23	58	92	31	39	70	45	184	236	346	7-1_13:59:7.0	0
112	30	67	88	38	38	66	43	183	241	342	7-1_13:59:8.0	0
118	21	61	108	19	51	75	41	184	240	343	7-1_13:59:9.0	0
117	14	52	98	18	43	90	48	184	241	343	7-1_13:59:10.0	0
124	14	66	100	16	46	75	40	184	241	343	7-1_13:59:11.0	0
124	19	55	104	28	51	79	36	183	241	341	7-1_13:59:12.0	0
123	21	57	103	26	51	79	39	183	240	346	7-1_13:59:13.0	0
123	12	50	99	31	46	90	37	184	241	342	7-1_13:59:14.0	0
121	19	58	100	29	44	83	42	184	241	342	7-1_13:59:15.0	0
126	11	69	99	18	53	80	49	183	242	341	7-1_13:59:16.0	0
123	19	57	110	26	48	83	45	183	241	342	7-1_13:59:17.0	0
125	24	53	97	18	42	84	47	183	242	341	7-1_13:59:18.0	0
119	18	56	104	26	48	72	41	184	241	342	7-1_13:59:19.0	0
92	23	52	82	19	28	52	33	52	272	305	7-1_13:59:20.0	0
136	25	51	102	23	42	51	63	354	56	26	7-1_13:59:21.0	0
128	30	45	102	26	45	46	59	357	72	36	7-1_13:59:22.0	0
132	26	48	100	22	40	51	61	358	65	32	7-1_13:59:23.0	0
149	13	50	121	39	44	79	82	4	8	0	7-1_13:59:24.0	0
149	24	58	119	31	58	77	92	355	4	5	7-1_13:59:25.0	0
336	90	149	257	86	175	242	117	322	328	309	7-1_13:59:26.0	0
280	50	117	207	94	147	246	45	269	271	323	7-1_13:59:27.0	0
84	17	35	66	6	33	55	26	264	271	226	7-1_13:59:28.0	0
85	17	33	63	20	22	41	44	267	268	228	7-1_13:59:29.0	0
108	25	43	87	25	38	105	46	261	268	226	7-1_13:59:30.0	0
104	15	33	87	11	42	78	34	250	269	229	7-1_13:59:31.0	0
101	22	41	84	18	40	81	34	294	272	226	7-1_13:59:32.0	0
112	18	37	91	12	38	84	44	280	271	227	7-1_13:59:33.0	0
109	20	36	89	11	38	82	44	294	271	228	7-1_13:59:34.0	0
114	20	41	89	18	33	78	47	279	271	227	7-1_13:59:35.0	0
126	19	50	83	25	39	86	40	290	271	229	7-1_13:59:36.0	0
105	27	37	98	7	41	86	49	285	271	228	7-1_13:59:37.0	0
121	14	44	91	26	34	80	45	294	273	227	7-1_13:59:38.0	0
101	29	33	88	13	30	72	40	304	272	225	7-1_13:59:39.0	0
109	23	36	79	20	27	68	34	303	273	227	7-1_13:59:40.0	0
94	12	32	72	25	29	67	28	294	273	225	7-1_13:59:41.0	0
118	30	38	94	13	31	69	37	303	272	227	7-1_13:59:42.0	0
123	24	44	92	23	37	79	42	303	273	226	7-1_13:59:43.0	0
105	16	34	69	18	18	21	29	303	272	226	7-1_13:59:44.0	0
106	17	34	57	3	16	5	39	286	272	228	7-1_13:59:45.0	0
99	14	31	51	8	14	4	29	304	276	225	7-1_13:59:46.0	0
91	8	34	41	8	16	3	27	296	276	227	7-1_13:59:47.0	0
96	10	38	49	4	17	3	37	304	275	225	7-1_13:59:48.0	0
102	12	37	60	2	17	5	35	306	273	225	7-1_13:59:49.0	0
93	15	27	55	12	16	6	29	306	274	225	7-1_13:59:50.0	0
97	14	33	62	14	21	28	33	303	273	225	7-1_13:59:51.0	0
85	16	27	52	13	26	32	27	294	275	226	7-1_13:59:52.0	0
87	15	28	55	14	23	18	27	304	275	225	7-1_13:59:53.0	0
86	5	44	65	5	13	17	26	305	276	223	7-1_13:59:54.0	0
88	9	36	70	15	18	28	34	306	276	223	7-1_13:59:55.0	0
75	10	21	39	6	13	14	22	306	276	223	7-1_13:59:56.0	0
64	6	24	37	3	9	24	24	305	277	227	7-1_13:59:57.0	0
86	7	37	76	19	24	34	40	305	277	225	7-1_13:59:58.0	0
78	4	35	75	18	23	29	36	305	277	225	7-1_13:59:59.0	0
90	13	24	71	18	22	29	34	306	277	226	7-1_14:0:0.0	0
94	13	40	72	13	25	46	28	297	274	234	7-1_14:0:1.0	0
228	53	104	155	60	99	139	50	261	352	334	7-1_14:0:2.0	0
221	48	116	189	69	118	186	64	275	347	25	7-1_14:0:3.0	0
203	41	98	171	63	112	144	51	277	322	284	7-1_14:0:4.0	193.2
97	13	37	80	19	30	49	32	298	277	222	7-1_14:0:5.0	193.5
123	28	44	86	15	36	58	35	307	278	222	7-1_14:0:6.0	193.2
121	21	49	93	19	33	60	43	306	277	224	7-1_14:0:7.0	192.6
226	32	106	197	78	115	180	132	349	6	48	7-1_14:0:8.0	192.5
190	32	91	150	41	79	122	136	348	16	38	7-1_14:0:9.0	192.5
193	37	104	154	42	82	123	136	357	5	52	7-1_14:0:10.0	193.7
191	36	98	146	54	95	116	132	357	5	51	7-1_14:0:11.0	193.4
201	38	103	155	51	88	115	126	355	2	48	7-1_14:0:12.0	194.6
197	39	89	152	46	80	107	123	358	22	54	7-1_14:0:13.0	195.2
193	39	102	159	52	79	114	125	358	6	49	7-1_14:0:14.0	194.7
201	39	104	147	40	92	110	126	357	5	48	7-1_14:0:15.0	197.2
188	37	101	153	41	86	113	122	357	5	47	7-1_14:0:16.0	197.1
187	40	101	147	52	84	105	126	358	5	48	7-1_14:0:17.0	195.6
201	26	96	153	43	80	106	132	357	5	48	7-1_14:0:18.0	193.8
197	27	98	147	50	82	106	122	357	5	47	7-1_14:0:19.0	195.3
181	48	86	162	33	77	98	130	357	5	46	7-1_14:0:20.0	194.5
185	44	88	156	41	76	100	119	357	5	46	7-1_14:0:21.0	194.3
185	28	98	139	51	87	113	127	357	5	48	7-1_14:0:22.0	197.4
190	32	95	144	44	83	107	123	357	5	47	7-1_14:0:23.0	197.5
187	32	95	144	44	77	101	117	358	5	50	7-1_14:0:24.0	193.2
176	28	90	132	45	77	105	108	357	5	52	7-1_14:0:25.0	191.8
172	34	88	133	35	77	98	121	357	5	48	7-1_14:0:26.0	191.9
160	26	73	127	42	64	85	108	357	5	33	7-1_14:0:27.0	192.3
175	32	85	131	43	74	92	115	357	5	54	7-1_14:0:28.0	192.5
174	27	84	134	43	69	87	122	357	5	62	7-1_14:0:29.0	192
181	24	91	133	50	62	88	125	357	5	60	7-1_14:0:30.0	192
175	26	91	136	37	78	98	118	357	5	59	7-1_14:0:31.0	193
169	38	83	143	44	78	93	118	357	5	55	7-1_14:0:32.0	193.6
176	27	91	141	39	72	95	125	357	5	53	7-1_14:0:33.0	194.1
173	29	90	137	47	67	89	124	357	5	50	7-1_14:0:34.0	194
165	38	83	144	38	83	102	113	357	5	51	7-1_14:0:35.0	194
175	32	99	128	51	68	87	119	357	5	51	7-1_14:0:36.0	194
174	28	90	134	45	67	87	120	358	5	50	7-1_14:0:37.0	194
171	35	87	141	40	71	93	123	357	5	49	7-1_14:0:38.0	194
177	28	98	130	49	70	91	120	357	5	55	7-1_14:0:39.0	194
163	32	83	136	42	69	90	123	357	5	51	7-1_14:0:40.0	194
171	33	94	135	44	79	99	117	357	5	50	7-1_14:0:41.0	194
175	23	91	131	48	67	91	119	357	5	51	7-1_14:0:42.0	194
165	35	94	136	42	81	101	120	357	5	48	7-1_14:0:43.0	194
165	36	90	142	33	79	99	127	357	5	49	7-1_14:0:44.0	194
170	31	91	135	41	75	93	119	357	5	51	7-1_14:0:45.0	194
176	23	98	130	49	77	97	121	357	5	53	7-1_14:0:46.0	194
174	22	96	130	45	74	95	123	357	5	48	7-1_14:0:47.0	194
175	25	96	132	44	79	99	125	357	5	47	7-1_14:0:48.0	194
169	24	91	132	47	75	97	118	357	5	49	7-1_14:0:49.0	194
171	25	93	131	45	77	99	123	357	5	51	7-1_14:0:50.0	194
171	30	90	138	38	70	89	121	357	5	56	7-1_14:0:51.0	194
165	34	83	133	46	77	96	124	357	5	56	7-1_14:0:52.0	194
171	22	95	128	44	78	97	125	357	5	56	7-1_14:0:53.0	194
173	29	92	139	38	70	89	122	357	5	56	7-1_14:0:54.0	194
178	31	92	143	32	66	84	117	358	5	57	7-1_14:0:55.0	194
165	19	99	126	44	81	96	131	357	5	56	7-1_14:0:56.0	194
165	28	90	134	44	73	91	123	357	5	56	7-1_14:0:57.0	194
174	34	86	143	40	66	90	117	358	5	57	7-1_14:0:58.0	194
163	32	87	134	47	77	95	126	358	5	56	7-1_14:0:59.0	194
171	36	89	140	42	70	93	121	357	5	56	7-1_14:1:0.0	185.3
165	27	91	133	41	76	88	121	357	5	56	7-1_14:1:1.0	186.4
168	23	96	141	35	65	89	119	357	5	56	7-1_14:1:2.0	187.6
144	27	73	134	35	60	81	119	359	8	59	7-1_14:1:3.0	188.6
151	31	74	131	32	60	77	114	358	20	70	7-1_14:1:4.0	188.1
142	29	69	126	35	61	77	113	359	1	63	7-1_14:1:5.0	189.4
141	26	70	129	35	61	78	113	358	1	61	7-1_14:1:6.0	189.2
138	22	83	135	32	61	89	120	358	0	60	7-1_14:1:7.0	186.4
138	25	70	129	39	65	76	107	357	0	58	7-1_14:1:8.0	187.8
153	36	65	121	31	56	76	110	358	1	61	7-1_14:1:9.0	187.3
146	31	72	127	33	60	81	114	358	1	61	7-1_14:1:10.0	187.2
145	26	78	133	38	65	81	114	358	1	61	7-1_14:1:11.0	187.6
152	32	72	130	35	62	84	117	358	1	61	7-1_14:1:12.0	186.2
151	32	71	131	35	63	83	116	358	1	61	7-1_14:1:13.0	185.6
145	25	80	136	35	63	87	125	358	1	61	7-1_14:1:14.0	185
148	27	72	138	46	71	76	117	358	1	60	7-1_14:1:15.0	184.5
158	30	82	141	39	67	80	117	357	6	62	7-1_14:1:16.0	183.5
147	29	74	134	38	66	81	112	358	0	60	7-1_14:1:17.0	185.8
155	36	67	128	40	68	74	110	358	1	59	7-1_14:1:18.0	186.1
141	28	73	124	35	62	80	106	358	1	59	7-1_14:1:19.0	186.4
123	21	64	105	32	58	76	105	358	0	59	7-1_14:1:20.0	186.2
132	21	72	116	29	58	75	106	358	0	59	7-1_14:1:21.0	188.1
127	18	72	109	37	66	87	110	358	0	59	7-1_14:1:22.0	189.6
141	16	77	111	42	68	90	108	358	0	58	7-1_14:1:23.0	189.2
136	26	65	122	31	54	76	98	358	0	58	7-1_14:1:24.0	189
139	29	65	126	31	54	78	99	358	0	59	7-1_14:1:25.0	189.4
137	21	73	130	33	59	88	116	358	0	59	7-1_14:1:26.0	188.7
147	30	80	129	29	56	94	124	357	0	59	7-1_14:1:27.0	189.2
150	28	89	142	37	70	92	116	358	0	58	7-1_14:1:28.0	188.8
142	24	75	135	39	61	82	119	358	359	59	7-1_14:1:29.0	188
136	19	76	133	38	62	82	117	358	359	58	7-1_14:1:30.0	187.8
136	22	73	122	34	59	84	108	358	0	57	7-1_14:1:31.0	187.7
123	13	61	104	26	55	79	81	358	359	57	7-1_14:1:32.0	187.7
135	24	72	122	36	63	87	116	359	358	58	7-1_14:1:33.0	187.4
138	26	75	117	30	62	85	111	358	358	57	7-1_14:1:34.0	187.4
133	26	73	120	29	63	78	118	358	359	57	7-1_14:1:35.0	187.1
135	28	76	107	35	63	91	106	358	359	57	7-1_14:1:36.0	187
139	23	73	125	34	60	85	115	358	359	56	7-1_14:1:37.0	186.9
136	31	82	126	24	71	88	113	358	359	56	7-1_14:1:38.0	187.2
131	27	74	117	36	58	89	111	358	359	57	7-1_14:1:39.0	186.8
135	23	68	115	42	54	85	114	358	359	57	7-1_14:1:40.0	186.4
153	15	61	127	45	52	78	123	357	0	56	7-1_14:1:41.0	185.8
132	18	66	109	34	57	84	95	358	359	57	7-1_14:1:42.0	185.5
142	25	75	130	31	65	83	117	358	359	57	7-1_14:1:43.0	186
148	17	68	134	32	60	77	110	358	359	57	7-1_14:1:44.0	186.1
156	27	76	138	44	57	86	122	358	359	56	7-1_14:1:45.0	185.9
155	30	76	133	46	56	89	121	358	358	56	7-1_14:1:46.0	185.9
159	25	73	141	43	59	86	123	358	359	57	7-1_14:1:47.0	185.7
158	28	77	135	43	60	87	120	358	359	57	7-1_14:1:48.0	185.5
147	25	77	140	32	64	81	122	358	359	57	7-1_14:1:49.0	185.2
146	20	69	124	38	56	87	112	358	359	57	7-1_14:1:50.0	186.2
150	13	65	119	45	56	97	106	358	359	55	7-1_14:1:51.0	184.6
144	24	77	128	34	61	86	114	358	358	57	7-1_14:1:52.0	183.9
144	20	74	135	29	63	78	123	358	359	56	7-1_14:1:53.0	182.6
151	26	80	139	37	65	87	121	358	359	57	7-1_14:1:54.0	181.9
162	23	73	144	34	66	84	123	358	358	57	7-1_14:1:55.0	182.1
152	34	82	128	43	57	91	120	357	357	57	7-1_14:1:56.0	182.5
159	29	86	137	39	67	96	121	358	358	53	7-1_14:1:57.0	183.6
161	25	77	142	35	73	96	117	358	358	53	7-1_14:1:58.0	182.7
154	32	78	138	45	72	94	117	358	358	54	7-1_14:1:59.0	181.9
165	24	87	135	37	65	97	124	358	358	53	7-1_14:2:0.0	181.9
157	30	80	138	38	69	95	120	358	358	54	7-1_14:2:1.0	181.8
168	22	91	127	51	60	84	120	358	358	53	7-1_14:2:2.0	182.2
156	33	82	141	32	72	100	126	358	357	52	7-1_14:2:3.0	182.2
157	29	80	139	36	66	93	122	358	358	52	7-1_14:2:4.0	181.2
156	33	78	142	31	68	93	126	358	358	52	7-1_14:2:5.0	164.8
152	35	74	146	29	63	88	126	358	358	52	7-1_14:2:6.0	160.7
159	23	86	131	43	69	97	120	358	358	52	7-1_14:2:7.0	158.9
158	27	83	135	37	70	96	125	358	358	52	7-1_14:2:8.0	157.8
160	22	82	131	49	66	95	118	359	357	54	7-1_14:2:9.0	157
164	35	81	147	38	71	99	129	358	357	53	7-1_14:2:10.0	156.4
167	34	82	146	38	72	98	129	358	358	52	7-1_14:2:11.0	155.8
161	37	76	149	34	66	88	131	358	358	53	7-1_14:2:12.0	155.2
168	23	87	136	44	72	99	127	358	357	53	7-1_14:2:13.0	154.5
159	35	79	142	36	69	93	133	358	357	53	7-1_14:2:14.0	153.9
163	28	79	139	41	63	88	132	358	358	53	7-1_14:2:15.0	153.9
166	31	78	152	36	75	103	131	358	358	52	7-1_14:2:16.0	153.7
175	21	84	149	33	77	105	126	358	357	53	7-1_14:2:17.0	153.5
172	26	78	151	36	76	100	129	358	358	52	7-1_14:2:18.0	153.3
160	28	78	139	36	76	98	126	358	358	54	7-1_14:2:19.0	153
159	32	77	133	48	66	88	138	358	358	54	7-1_14:2:20.0	152.9
160	26	82	143	30	81	95	134	358	357	54	7-1_14:2:21.0	152.9
141	49	98	123	37	73	110	123	358	357	53	7-1_14:2:22.0	152.8
154	31	84	141	31	78	95	133	358	357	53	7-1_14:2:23.0	152.5
155	31	82	139	38	70	90	136	359	357	55	7-1_14:2:24.0	152.3
171	25	69	142	47	63	80	144	0	358	56	7-1_14:2:25.0	152.1
161	23	75	143	26	74	91	128	359	358	57	7-1_14:2:26.0	151.9
125	28	71	113	29	53	82	120	359	357	58	7-1_14:2:27.0	151.8
162	30	74	137	44	65	91	138	359	357	57	7-1_14:2:28.0	151.6
161	31	81	140	36	72	97	135	359	357	59	7-1_14:2:29.0	151.5
161	32	82	138	34	70	94	135	358	357	58	7-1_14:2:30.0	151.4
161	28	69	144	40	67	84	139	359	357	57	7-1_14:2:31.0	151.4
146	26	73	127	37	60	85	132	359	357	59	7-1_14:2:32.0	151.6
150	37	86	130	35	66	100	126	358	356	57	7-1_14:2:33.0	151.7
163	27	75	144	31	72	89	131	359	357	57	7-1_14:2:34.0	151.9
153	21	64	133	34	61	79	123	359	356	57	7-1_14:2:35.0	152.2
153	31	72	128	38	55	82	119	359	357	56	7-1_14:2:36.0	152.4
148	27	68	121	33	53	76	111	359	357	56	7-1_14:2:37.0	152.8
159	34	72	134	40	55	83	122	359	356	56	7-1_14:2:38.0	153.2
156	27	67	132	34	59	79	118	359	357	57	7-1_14:2:39.0	153.5
147	32	67	122	35	54	75	117	359	357	56	7-1_14:2:40.0	153.5
142	28	62	128	29	57	80	117	358	356	56	7-1_14:2:41.0	153.6
162	21	69	127	36	53	73	126	359	356	57	7-1_14:2:42.0	153.6
149	34	75	118	42	55	73	117	359	356	57	7-1_14:2:43.0	153.7
131	27	70	111	36	43	64	104	359	357	56	7-1_14:2:44.0	153.6
152	29	71	129	35	55	67	123	359	356	58	7-1_14:2:45.0	152.9
148	38	78	123	42	55	87	124	359	357	57	7-1_14:2:46.0	153.1
157	32	78	125	44	58	86	142	358	356	59	7-1_14:2:47.0	153.1
165	26	72	137	35	66	91	138	359	356	60	7-1_14:2:48.0	153.2
161	20	76	119	39	49	72	126	359	356	59	7-1_14:2:49.0	153.1
141	36	68	124	33	64	82	109	358	356	58	7-1_14:2:50.0	153
151	28	73	132	32	63	87	112	359	356	60	7-1_14:2:51.0	152.5
152	27	79	129	38	58	94	134	359	356	60	7-1_14:2:52.0	151.8
176	27	76	153	33	72	109	133	358	356	59	7-1_14:2:53.0	152
169	28	75	148	35	80	110	131	359	356	62	7-1_14:2:54.0	151.4
160	29	76	135	37	69	98	117	359	356	63	7-1_14:2:55.0	151.2
192	32	93	143	54	76	112	120	358	359	56	7-1_14:2:56.0	151.1
186	33	90	143	50	77	108	116	355	359	43	7-1_14:2:57.0	151.3
183	37	89	149	45	77	108	121	356	359	43	7-1_14:2:58.0	151.1
138	26	59	93	34	39	55	75	357	2	31	7-1_14:2:59.0	150.5
67	8	24	36	16	12	24	35	359	8	349	7-1_14:3:0.0	150.8
55	7	19	39	8	20	20	37	0	7	349	7-1_14:3:1.0	151.1
48	8	17	40	12	9	25	28	0	7	349	7-1_14:3:2.0	150.9
46	11	20	40	17	10	33	33	0	7	349	7-1_14:3:3.0	150.8
54	6	15	29	16	16	32	30	0	7	349	7-1_14:3:4.0	151
48	9	22	30	15	10	26	32	0	7	349	7-1_14:3:5.0	150.7
56	5	15	42	11	17	20	46	0	7	349	7-1_14:3:6.0	151.2
82	11	32	58	14	18	38	63	0	7	353	7-1_14:3:7.0	151.1
80	12	32	65	7	30	33	63	0	7	352	7-1_14:3:8.0	151.4
75	11	29	61	12	23	32	61	0	7	352	7-1_14:3:9.0	152
78	8	25	65	13	22	27	68	0	7	353	7-1_14:3:10.0	152.3
72	12	27	64	13	24	27	68	0	7	353	7-1_14:3:11.0	152.3
70	14	32	56	14	26	33	64	0	7	353	7-1_14:3:12.0	152.5
72	11	28	61	15	21	31	64	0	7	352	7-1_14:3:13.0	152.1
71	8	20	41	19	21	34	53	0	7	353	7-1_14:3:14.0	151.9
46	7	18	38	9	11	18	28	0	7	353	7-1_14:3:15.0	151.6
66	8	22	40	18	11	20	31	0	7	352	7-1_14:3:16.0	151.7
60	9	21	41	14	10	18	34	0	7	352	7-1_14:3:17.0	151.5
69	9	34	31	22	4	11	37	359	7	353	7-1_14:3:18.0	151.1
58	9	22	42	11	12	21	29	0	6	352	7-1_14:3:19.0	150.8
59	11	19	44	12	10	14	35	0	6	352	7-1_14:3:20.0	150.7
57	11	17	38	17	14	23	28	0	7	352	7-1_14:3:21.0	150.7
67	11	25	48	5	7	10	26	0	7	352	7-1_14:3:22.0	150.3
58	4	26	39	13	16	25	32	359	7	352	7-1_14:3:23.0	149.9
52	5	28	34	12	19	24	35	359	6	352	7-1_14:3:24.0	150
60	11	22	40	13	14	22	30	0	6	352	7-1_14:3:25.0	150.1
62	13	20	43	16	10	23	27	0	6	352	7-1_14:3:26.0	150.1
56	9	28	41	8	10	14	26	0	6	353	7-1_14:3:27.0	150.3
58	8	27	33	15	17	23	32	0	6	352	7-1_14:3:28.0	150.2
60	9	22	42	13	9	19	27	0	7	352	7-1_14:3:29.0	150.2
69	9	35	29	17	19	25	22	0	7	353	7-1_14:3:30.0	150.6
47	1	17	38	12	7	15	41	0	7	353	7-1_14:3:31.0	150.9
52	8	27	29	15	14	22	26	0	7	353	7-1_14:3:32.0	151.3
46	11	15	41	7	15	23	34	0	7	353	7-1_14:3:33.0	151.8
37	5	12	41	18	5	12	30	0	7	353	7-1_14:3:34.0	152.4
44	8	14	39	17	11	18	29	0	7	352	7-1_14:3:35.0	156.3
49	6	21	35	10	15	22	32	0	7	352	7-1_14:3:36.0	157.7
46	12	10	40	20	14	24	30	0	7	353	7-1_14:3:37.0	158.5
48	9	16	41	15	13	23	28	0	7	353	7-1_14:3:38.0	159.1
49	3	27	28	9	20	25	37	0	7	353	7-1_14:3:39.0	159.4
45	9	18	34	12	14	19	32	0	7	353	7-1_14:3:40.0	159.8
43	6	18	34	15	14	24	31	0	7	353	7-1_14:3:41.0	159.9
42	6	19	31	9	13	14	31	0	7	353	7-1_14:3:42.0	160
47	10	17	33	13	19	19	33	0	7	353	7-1_14:3:43.0	159.9
39	6	20	27	12	18	30	39	0	7	352	7-1_14:3:44.0	160
44	4	22	32	11	14	17	31	0	7	353	7-1_14:3:45.0	159.7
43	4	19	32	14	16	24	32	0	7	353	7-1_14:3:46.0	159.8
49	6	24	29	11	19	27	33	0	7	352	7-1_14:3:47.0	159.7
49	8	20	36	7	12	17	37	0	7	352	7-1_14:3:48.0	159.5
44	7	18	34	14	15	23	31	0	7	353	7-1_14:3:49.0	159.6
43	4	23	28	15	16	24	32	0	7	353	7-1_14:3:50.0	159.5
45	6	21	30	12	13	25	31	0	7	353	7-1_14:3:51.0	159.4
44	7	14	32	16	11	19	31	0	7	353	7-1_14:3:52.0	159.3
48	11	19	33	9	15	16	32	0	7	353	7-1_14:3:53.0	159.1
46	12	14	38	7	13	19	37	0	7	352	7-1_14:3:54.0	158.9
39	4	21	25	18	13	20	30	0	7	353	7-1_14:3:55.0	158.7
45	8	21	32	11	9	14	27	0	7	352	7-1_14:3:56.0	158.5
47	10	14	25	9	10	13	26	0	7	353	7-1_14:3:57.0	158.5
51	10	13	25	8	13	28	32	0	7	352	7-1_14:3:58.0	158.3
52	6	25	34	8	8	24	32	0	7	352	7-1_14:3:59.0	158
40	10	21	36	12	8	22	28	0	7	352	7-1_14:4:0.0	157.8
42	6	19	31	9	14	22	29	0	7	353	7-1_14:4:1.0	157.8
46	6	12	28	14	13	18	35	0	7	352	7-1_14:4:2.0	157.7
40	8	15	32	15	12	22	31	0	7	353	7-1_14:4:3.0	157.6
56	2	19	28	7	15	23	30	0	7	353	7-1_14:4:4.0	157.4
43	8	18	31	14	12	18	36	0	7	353	7-1_14:4:5.0	157.5
62	8	28	33	4	5	23	22	0	7	352	7-1_14:4:6.0	157.5
45	5	14	25	12	19	20	40	0	6	353	7-1_14:4:7.0	157.2
46	10	20	31	11	14	23	32	0	7	353	7-1_14:4:8.0	157.1
41	13	25	40	7	13	15	36	0	7	352	7-1_14:4:9.0	157.1
42	3	8	31	20	11	29	31	0	7	353	7-1_14:4:10.0	157.5
50	6	16	29	12	13	25	34	0	7	354	7-1_14:4:11.0	157.4
45	3	8	21	14	23	18	34	0	8	353	7-1_14:4:12.0	157.6
39	13	21	41	17	8	31	33	0	7	353	7-1_14:4:13.0	157.6
47	2	15	27	10	17	20	37	0	8	353	7-1_14:4:14.0	157.2
48	7	18	34	13	13	22	43	0	7	353	7-1_14:4:15.0	156.9
46	5	17	35	11	11	20	38	0	8	353	7-1_14:4:16.0	157
55	7	20	35	10	15	26	40	0	8	353	7-1_14:4:17.0	156.8
49	3	24	38	9	14	26	43	0	7	353	7-1_14:4:18.0	157
55	8	22	38	9	16	23	45	0	8	353	7-1_14:4:19.0	157.3
58	6	23	43	11	17	32	55	0	7	353	7-1_14:4:20.0	157.4
63	7	28	48	9	15	28	56	0	7	353	7-1_14:4:21.0	157.6
67	9	26	54	11	14	28	55	0	7	353	7-1_14:4:22.0	157.8
46	4	30	42	5	12	22	50	0	7	353	7-1_14:4:23.0	157.9
59	12	21	52	18	22	28	56	0	7	353	7-1_14:4:24.0	157.9
56	8	22	48	12	18	27	56	0	7	353	7-1_14:4:25.0	158
56	7	26	47	12	21	27	54	0	7	353	7-1_14:4:26.0	157.9
56	13	16	38	8	16	29	57	0	7	353	7-1_14:4:27.0	157.5
58	9	25	48	19	21	16	59	1	7	353	7-1_14:4:28.0	157.4
59	10	25	50	12	18	22	54	0	7	353	7-1_14:4:29.0	157.4
61	7	21	44	10	21	27	60	0	8	353	7-1_14:4:30.0	157.4
58	9	22	48	14	20	27	61	0	7	353	7-1_14:4:31.0	157.4
64	6	18	45	19	18	34	58	0	7	353	7-1_14:4:32.0	157.3
61	6	17	49	17	15	30	56	0	7	353	7-1_14:4:33.0	157.3
52	11	28	36	16	21	38	45	0	7	353	7-1_14:4:34.0	157.1
29	6	13	16	20	3	21	22	20	4	354	7-1_14:4:35.0	157
19	1	6	11	8	4	9	4	63	15	30	7-1_14:4:36.0	156.9
4	5	7	9	7	3	5	2	83	71	80	7-1_14:4:37.0	156.6
3	2	4	6	6	1	6	4	83	58	67	7-1_14:4:38.0	157
5	2	3	1	2	2	4	4	83	62	71	7-1_14:4:39.0	156.7
4	3	2	8	4	2	6	5	83	59	68	7-1_14:4:40.0	156.7
1	1	11	7	5	2	3	2	83	59	68	7-1_14:4:41.0	156.5
5	4	12	4	2	1	2	2	83	63	72	7-1_14:4:42.0	156.3
3	3	5	5	5	1	8	3	83	59	69	7-1_14:4:43.0	156.2
3	2	7	3	2	2	6	4	83	62	72	7-1_14:4:44.0	156
5	4	6	6	6	5	8	3	83	59	68	7-1_14:4:45.0	155.7
1	2	1	4	9	2	6	1	83	60	69	7-1_14:4:46.0	155.2
5	8	8	8	4	2	5	1	83	59	68	7-1_14:4:47.0	154.9
7	6	6	9	4	1	0	0	83	58	67	7-1_14:4:48.0	154.7
5	3	10	10	13	6	0	0	83	62	71	7-1_14:4:49.0	154.4
6	7	4	4	5	2	8	3	83	61	70	7-1_14:4:50.0	154.1
4	4	3	2	4	1	4	1	83	58	67	7-1_14:4:51.0	153.9
7	5	4	4	4	1	6	5	83	59	69	7-1_14:4:52.0	153.8
8	5	2	5	6	3	4	3	83	60	69	7-1_14:4:53.0	153.5
4	4	6	7	7	3	7	4	83	58	67	7-1_14:4:54.0	153.2
7	5	5	3	3	1	2	1	83	60	69	7-1_14:4:55.0	152.8
12	9	1	3	2	1	4	3	83	61	70	7-1_14:4:56.0	152.4
0	1	9	9	9	4	6	4	83	59	69	7-1_14:4:57.0	152.2
2	2	2	2	4	2	2	2	83	58	68	7-1_14:4:58.0	151.9
2	0	5	6	6	2	0	1	83	58	67	7-1_14:4:59.0	152
3	3	5	6	7	1	10	4	83	57	66	7-1_14:5:0.0	151.8
7	7	7	7	8	4	4	4	83	62	71	7-1_14:5:1.0	151.8
13	3	11	6	2	0	9	1	83	60	69	7-1_14:5:2.0	152
4	7	4	9	6	2	4	3	83	59	69	7-1_14:5:3.0	152
7	2	3	5	9	1	7	3	83	57	66	7-1_14:5:4.0	152.1
1	3	4	8	4	3	6	6	83	58	67	7-1_14:5:5.0	152.2
4	3	5	3	8	4	7	1	83	58	67	7-1_14:5:6.0	152.1
8	7	9	8	3	5	6	0	83	58	68	7-1_14:5:7.0	152.1
3	6	7	6	8	4	2	2	83	60	70	7-1_14:5:8.0	151.9
1	7	8	2	9	2	0	5	83	61	69	7-1_14:5:9.0	151.8
2	9	8	5	11	3	4	6	83	58	68	7-1_14:5:10.0	151.8
9	2	7	7	4	5	10	1	83	55	64	7-1_14:5:11.0	151.6
6	6	4	7	8	3	4	4	83	56	65	7-1_14:5:12.0	151.6
2	7	4	6	8	3	0	6	83	55	64	7-1_14:5:13.0	151.7
5	2	8	0	6	0	0	3	83	59	68	7-1_14:5:14.0	151.5
6	5	6	7	7	5	6	3	83	55	64	7-1_14:5:15.0	151.3
5	6	9	4	6	2	5	3	83	59	68	7-1_14:5:16.0	151.1
4	2	0	6	6	2	2	6	83	58	67	7-1_14:5:17.0	150.9
1	7	8	5	6	3	5	1	83	57	66	7-1_14:5:18.0	150.7
7	6	10	3	5	2	9	0	83	60	69	7-1_14:5:19.0	150.6
6	6	6	8	8	5	0	3	83	58	67	7-1_14:5:20.0	150.6
6	5	7	7	8	4	6	4	83	57	66	7-1_14:5:21.0	150.3
3	3	2	8	6	4	3	4	83	56	65	7-1_14:5:22.0	150.1
5	5	4	4	6	2	4	4	83	56	65	7-1_14:5:23.0	150.1
3	6	2	4	8	2	2	7	83	56	66	7-1_14:5:24.0	149.9
4	3	2	2	3	0	4	2	83	56	65	7-1_14:5:25.0	149.5
11	1	1	13	2	8	7	1	83	56	66	7-1_14:5:26.0	149.1
5	4	5	5	6	2	7	4	83	53	62	7-1_14:5:27.0	148.8
0	14	8	0	18	0	4	1	83	57	67	7-1_14:5:28.0	148.4
4	4	3	4	12	1	7	3	83	55	64	7-1_14:5:29.0	148
6	7	8	5	5	2	9	1	83	56	65	7-1_14:5:30.0	147.5
6	2	3	2	12	0	10	4	83	58	67	7-1_14:5:31.0	147.2
7	6	7	5	6	3	4	3	83	56	66	7-1_14:5:32.0	146.9
2	10	11	6	6	0	4	0	83	58	67	7-1_14:5:33.0	146.7
1	9	9	9	6	0	6	2	83	58	68	7-1_14:5:34.0	146.7
5	3	2	4	11	1	5	2	83	56	65	7-1_14:5:35.0	146.4
5	2	2	2	5	3	3	0	83	57	66	7-1_14:5:36.0	146.2
11	1	8	7	4	3	7	1	83	54	64	7-1_14:5:37.0	146
15	0	5	0	0	2	0	1	83	56	66	7-1_14:5:38.0	145.8
5	5	4	5	8	1	6	1	83	58	67	7-1_14:5:39.0	145.8
5	4	1	4	10	2	6	2	83	56	65	7-1_14:5:40.0	145.5
2	11	9	11	9	0	11	3	83	55	64	7-1_14:5:41.0	145.5
5	7	4	7	6	1	6	3	83	53	62	7-1_14:5:42.0	145.4
7	5	6	6	8	2	6	2	83	57	66	7-1_14:5:43.0	145.4
5	3	5	5	4	4	6	4	83	55	65	7-1_14:5:44.0	145.4
2	7	2	2	2	4	5	4	83	61	70	7-1_14:5:45.0	145.3
3	5	0	1	1	0	11	8	83	55	64	7-1_14:5:46.0	145.3
7	8	6	6	5	3	4	2	83	55	65	7-1_14:5:47.0	145.3
4	2	10	6	5	3	5	2	83	56	66	7-1_14:5:48.0	145.6
3	0	11	7	0	0	1	0	83	57	66	7-1_14:5:49.0	145.7
9	10	2	10	7	0	4	0	82	56	65	7-1_14:5:50.0	145.9
4	3	5	4	8	3	8	5	83	53	63	7-1_14:5:51.0	146.1
4	4	5	6	6	1	3	1	83	53	63	7-1_14:5:52.0	146.1
3	7	4	5	9	3	7	3	83	56	65	7-1_14:5:53.0	146
3	3	3	7	8	3	7	4	83	56	65	7-1_14:5:54.0	145.8
4	1	9	6	1	1	0	1	83	55	64	7-1_14:5:55.0	145.6
0	0	12	6	0	0	1	0	83	56	65	7-1_14:5:56.0	145.6
9	8	2	8	15	8	8	6	83	57	66	7-1_14:5:57.0	145
8	8	2	6	7	3	7	4	83	56	66	7-1_14:5:58.0	144.8
7	5	3	8	8	3	7	4	83	54	64	7-1_14:5:59.0	144.6
4	6	5	6	10	2	9	2	82	56	65	7-1_14:6:0.0	144.7
1	5	4	8	7	2	5	0	83	56	65	7-1_14:6:1.0	144.6
5	4	3	5	8	1	3	3	83	56	65	7-1_14:6:2.0	144.3
3	5	5	8	4	3	5	1	83	59	68	7-1_14:6:3.0	144.6
8	8	3	6	4	1	2	7	83	56	66	7-1_14:6:4.0	144.5
7	3	8	6	6	3	6	3	83	57	67	7-1_14:6:5.0	144.2
5	6	5	6	6	3	7	4	83	53	63	7-1_14:6:6.0	144
6	5	10	5	2	2	2	3	83	58	67	7-1_14:6:7.0	144
5	4	6	6	3	2	2	0	83	55	65	7-1_14:6:8.0	143.8
2	2	11	2	5	2	4	2	83	57	66	7-1_14:6:9.0	143.9
9	8	2	4	9	6	2	1	83	59	68	7-1_14:6:10.0	143.8
7	6	2	3	4	1	3	1	83	57	66	7-1_14:6:11.0	143.5
11	11	7	4	4	5	5	2	83	55	64	7-1_14:6:12.0	143.5
4	3	3	2	3	4	7	2	83	56	65	7-1_14:6:13.0	143.3
3	6	5	8	7	4	6	1	83	55	64	7-1_14:6:14.0	143.1
2	6	6	9	6	1	9	1	83	56	65	7-1_14:6:15.0	142.8
5	4	5	6	9	0	8	1	83	58	67	7-1_14:6:16.0	143.1
5	3	5	6	3	4	2	4	83	55	64	7-1_14:6:17.0	143.1
2	4	6	8	2	4	1	4	83	57	66	7-1_14:6:18.0	142.9
6	6	6	5	6	3	8	2	83	55	64	7-1_14:6:19.0	142.8
5	6	7	2	7	3	7	4	83	58	67	7-1_14:6:20.0	142.9
9	3	4	5	6	3	4	0	83	55	64	7-1_14:6:21.0	143
5	9	9	0	6	3	5	1	83	56	65	7-1_14:6:22.0	142.8
6	4	6	9	2	5	2	8	82	55	64	7-1_14:6:23.0	142.9
9	2	3	4	9	3	4	3	83	56	65	7-1_14:6:24.0	143
8	4	5	4	5	2	4	5	83	53	63	7-1_14:6:25.0	143.2
2	5	4	1	9	0	5	6	83	57	66	7-1_14:6:26.0	142.8
9	2	1	11	2	7	8	1	83	57	65	7-1_14:6:27.0	144.1
0	9	3	5	8	5	3	4	82	55	63	7-1_14:6:28.0	144.1
10	2	8	1	11	0	0	6	83	57	66	7-1_14:6:29.0	144.2
8	3	8	2	7	3	4	3	83	55	65	7-1_14:6:30.0	144.5
9	1	11	1	7	6	9	0	83	55	64	7-1_14:6:31.0	144.7
7	5	8	5	2	4	7	5	83	55	64	7-1_14:6:32.0	144.1
3	5	6	3	6	5	8	5	83	58	67	7-1_14:6:33.0	144.4
9	5	7	6	3	2	2	4	83	54	63	7-1_14:6:34.0	144.8
0	3	10	0	6	2	5	3	83	56	65	7-1_14:6:35.0	143.7
3	2	5	3	4	4	5	5	83	54	63	7-1_14:6:36.0	143.6
2	0	6	3	0	4	1	3	83	57	67	7-1_14:6:37.0	144.1
4	4	5	3	2	3	0	2	83	54	63	7-1_14:6:38.0	144.3
4	5	3	5	10	6	9	6	83	57	66	7-1_14:6:39.0	144.4
6	4	7	10	5	1	4	1	83	56	66	7-1_14:6:40.0	144.1
6	7	6	9	8	2	9	5	83	55	64	7-1_14:6:41.0	144
3	2	6	6	1	2	5	1	83	55	64	7-1_14:6:42.0	144.1
6	6	9	3	7	4	2	1	83	53	63	7-1_14:6:43.0	144.7
5	5	3	6	5	0	5	3	83	55	64	7-1_14:6:44.0	144.9
2	1	4	7	11	5	5	2	83	56	65	7-1_14:6:45.0	144.8
8	6	3	4	4	2	9	5	83	52	62	7-1_14:6:46.0	144.6
6	5	3	3	3	2	6	5	83	53	62	7-1_14:6:47.0	144.7
6	5	6	7	7	3	4	3	83	60	68	7-1_14:6:48.0	144.3
5	7	6	5	8	3	5	3	83	58	68	7-1_14:6:49.0	144.2
0	5	5	6	6	5	5	5	83	55	65	7-1_14:6:50.0	145.4
4	5	2	5	8	4	8	3	83	56	65	7-1_14:6:51.0	144.6
3	5	5	5	9	2	10	1	83	53	63	7-1_14:6:52.0	144.7
9	2	3	5	5	5	6	5	83	58	67	7-1_14:6:53.0	143.7
3	11	11	8	5	1	4	1	83	56	65	7-1_14:6:54.0	142.5
4	5	4	8	4	1	3	1	83	57	66	7-1_14:6:55.0	142.5
2	9	10	8	2	3	2	4	83	55	64	7-1_14:6:56.0	143.3
6	8	8	5	5	3	4	4	83	56	66	7-1_14:6:57.0	142.8
7	6	8	3	2	4	2	5	83	56	65	7-1_14:6:58.0	142.7
6	4	2	8	7	1	5	2	83	53	63	7-1_14:6:59.0	144.3
5	4	5	5	6	5	5	5	83	55	64	7-1_14:7:0.0	144.2
5	6	3	5	9	3	7	3	83	53	62	7-1_14:7:1.0	144.3
1	7	6	4	12	0	10	0	83	54	63	7-1_14:7:2.0	144.2
6	4	8	5	4	2	4	2	83	56	66	7-1_14:7:3.0	144.6
6	5	4	7	8	2	8	1	83	57	66	7-1_14:7:4.0	144.4
7	3	5	3	7	3	4	4	83	58	67	7-1_14:7:5.0	145.2
8	5	7	8	4	3	6	1	83	57	66	7-1_14:7:6.0	145.1
5	5	1	7	9	5	9	5	83	56	65	7-1_14:7:7.0	145.6
7	4	5	4	4	3	5	3	83	56	65	7-1_14:7:8.0	145.6
1	7	3	6	14	1	6	5	83	55	64	7-1_14:7:9.0	145.9
9	3	6	4	4	1	6	3	83	56	65	7-1_14:7:10.0	146
6	6	10	10	3	3	11	1	83	56	65	7-1_14:7:11.0	145.4
5	4	4	4	8	3	2	5	83	56	65	7-1_14:7:12.0	146.1
4	6	5	4	5	5	3	3	83	55	65	7-1_14:7:13.0	146.6
6	1	6	7	5	0	5	6	83	55	65	7-1_14:7:14.0	146.4
11	0	12	12	8	0	4	8	83	56	66	7-1_14:7:15.0	146.1
9	7	8	7	11	6	1	2	83	53	63	7-1_14:7:16.0	145.7
4	2	7	7	7	0	2	5	83	55	65	7-1_14:7:17.0	145.2
4	7	0	0	0	0	6	6	83	55	65	7-1_14:7:18.0	145.6
4	4	2	4	4	3	6	2	83	56	65	7-1_14:7:19.0	144.9
3	2	7	6	7	3	3	2	83	55	64	7-1_14:7:20.0	144.6
5	5	9	6	4	2	8	4	83	56	65	7-1_14:7:21.0	144.8
4	0	8	7	8	5	5	3	83	55	64	7-1_14:7:22.0	145.1
5	4	9	6	2	0	8	5	83	53	62	7-1_14:7:23.0	144.9
1	0	9	10	5	1	10	6	83	55	65	7-1_14:7:24.0	144.8
3	3	8	7	3	3	5	3	83	55	65	7-1_14:7:25.0	144.4
10	9	1	10	8	2	5	3	83	55	63	7-1_14:7:26.0	144.1
2	4	5	5	8	2	6	3	83	58	67	7-1_14:7:27.0	144.5
3	4	4	4	8	6	9	3	83	56	65	7-1_14:7:28.0	144.1
1	1	12	1	5	5	3	8	83	58	66	7-1_14:7:29.0	144
10	7	3	10	2	0	1	1	83	57	66	7-1_14:7:30.0	144.3
12	5	5	9	5	1	3	1	83	53	63	7-1_14:7:31.0	144.3
9	7	5	8	6	2	5	2	83	57	66	7-1_14:7:32.0	144
4	4	7	3	7	2	7	3	83	54	63	7-1_14:7:33.0	144.1
4	4	4	5	6	1	7	2	83	57	66	7-1_14:7:34.0	144.6
1	1	7	3	2	1	2	1	83	58	67	7-1_14:7:35.0	145.4
7	7	3	6	8	5	3	2	83	54	64	7-1_14:7:36.0	146.1
5	4	7	8	8	5	4	2	82	56	64	7-1_14:7:37.0	146.8
8	11	0	0	0	0	11	8	83	52	62	7-1_14:7:38.0	147.2
6	4	5	6	7	2	6	2	83	54	63	7-1_14:7:39.0	147.7
5	6	3	3	4	4	6	3	83	53	63	7-1_14:7:40.0	148
7	4	5	5	6	3	8	4	83	56	65	7-1_14:7:41.0	148.8
2	4	2	4	3	5	3	1	83	59	68	7-1_14:7:42.0	149.6
3	6	4	5	6	3	5	3	83	54	63	7-1_14:7:43.0	150.3
7	6	6	4	4	3	3	3	83	53	63	7-1_14:7:44.0	150.6
4	4	6	6	7	3	6	3	83	54	64	7-1_14:7:45.0	151.2
8	2	7	5	4	3	5	0	83	55	64	7-1_14:7:46.0	151.7
7	3	3	6	7	4	8	1	83	54	64	7-1_14:7:47.0	152.8
6	4	4	8	6	3	3	2	83	56	65	7-1_14:7:48.0	153.3
10	2	6	2	0	6	2	2	83	54	63	7-1_14:7:49.0	153.8
10	5	5	5	4	1	6	0	83	55	63	7-1_14:7:50.0	153.9
7	2	3	2	2	3	9	1	83	57	66	7-1_14:7:51.0	154.4
9	4	11	10	7	3	5	6	83	53	62	7-1_14:7:52.0	154.5
6	0	9	9	6	0	5	7	83	55	64	7-1_14:7:53.0	154.2
5	9	4	4	4	4	6	1	83	55	64	7-1_14:7:54.0	154.4
8	8	6	4	5	5	4	1	83	56	65	7-1_14:7:55.0	154.1
7	4	4	1	3	4	8	4	83	53	62	7-1_14:7:56.0	154.3
5	5	6	6	7	3	4	3	83	59	68	7-1_14:7:57.0	154.3
6	0	10	10	8	1	5	4	83	56	65	7-1_14:7:58.0	153.8
7	1	9	10	7	1	5	6	83	54	63	7-1_14:7:59.0	153.5
4	4	4	4	4	3	7	2	83	55	63	7-1_14:8:0.0	153.2
5	7	5	6	7	5	3	3	83	56	65	7-1_14:8:1.0	152.8
5	5	7	5	6	5	4	2	83	55	64	7-1_14:8:2.0	152.4
5	1	3	0	1	2	6	0	83	55	64	7-1_14:8:3.0	152.5
4	5	7	7	5	2	7	3	83	55	63	7-1_14:8:4.0	152.4
5	4	5	6	4	4	6	3	83	57	65	7-1_14:8:5.0	152.2
7	2	3	2	3	2	4	1	83	56	64	7-1_14:8:6.0	152.2
5	1	2	1	1	4	2	1	83	53	61	7-1_14:8:7.0	151.7
7	3	8	4	3	4	6	3	83	52	61	7-1_14:8:8.0	151.6
3	2	3	3	2	5	3	1	83	57	67	7-1_14:8:9.0	151.6
0	4	1	2	6	6	1	3	83	56	65	7-1_14:8:10.0	151.5
6	2	4	2	2	5	5	0	83	55	64	7-1_14:8:11.0	151.4
6	4	6	6	6	4	6	3	83	56	65	7-1_14:8:12.0	151.1
6	7	10	7	6	0	9	1	83	52	62	7-1_14:8:13.0	151.1
5	2	6	3	2	6	2	7	83	54	62	7-1_14:8:14.0	151
7	4	3	7	5	2	5	2	83	51	60	7-1_14:8:15.0	150.9
4	6	7	6	2	5	4	2	83	54	63	7-1_14:8:16.0	150.9
3	3	4	7	9	3	3	3	83	55	64	7-1_14:8:17.0	151
3	4	8	3	2	3	9	4	83	52	61	7-1_14:8:18.0	151
2	4	8	6	3	2	4	0	83	53	62	7-1_14:8:19.0	151.4
11	3	11	2	9	1	2	6	83	52	61	7-1_14:8:20.0	151.7
6	1	8	9	10	1	5	3	83	56	65	7-1_14:8:21.0	152
5	7	5	5	7	3	5	4	83	54	63	7-1_14:8:22.0	152.1
3	6	2	6	4	3	6	5	83	53	62	7-1_14:8:23.0	152.1
9	6	9	3	6	5	8	1	83	54	63	7-1_14:8:24.0	152.4
6	4	5	3	5	4	7	1	83	59	67	7-1_14:8:25.0	152.7
4	8	5	4	5	4	7	2	82	54	62	7-1_14:8:26.0	153
6	3	6	1	12	3	5	0	83	52	61	7-1_14:8:27.0	153.2
9	2	8	7	4	1	3	5	83	59	67	7-1_14:8:28.0	153.2
3	8	4	4	4	5	5	4	83	56	65	7-1_14:8:29.0	153.2
1	3	1	11	1	4	10	2	83	53	62	7-1_14:8:30.0	153.3
4	5	3	8	4	3	10	2	83	55	63	7-1_14:8:31.0	153.3
2	7	7	2	6	4	1	3	83	55	63	7-1_14:8:32.0	153.4
2	5	5	9	6	6	4	3	82	51	60	7-1_14:8:33.0	153.4
9	1	2	12	1	8	9	0	83	53	62	7-1_14:8:34.0	153.2
4	0	0	12	0	6	6	2	83	50	59	7-1_14:8:35.0	153.3
1	9	9	4	9	2	5	2	83	56	64	7-1_14:8:36.0	153.1
6	6	8	3	7	2	9	2	83	57	66	7-1_14:8:37.0	153.2
6	4	7	5	5	2	8	1	83	58	67	7-1_14:8:38.0	153.2
7	5	5	6	6	2	6	3	83	52	61	7-1_14:8:39.0	153.7
7	2	4	10	2	5	9	1	83	56	65	7-1_14:8:40.0	154
1	6	3	4	6	1	1	4	83	58	66	7-1_14:8:41.0	154.3
7	4	3	8	5	4	6	3	83	55	63	7-1_14:8:42.0	154.3
8	6	9	2	8	2	5	4	83	52	61	7-1_14:8:43.0	154.3
8	5	9	4	9	1	7	5	83	53	62	7-1_14:8:44.0	154.7
4	5	5	7	6	3	7	2	83	55	63	7-1_14:8:45.0	154.9
5	2	3	8	2	5	6	3	83	55	64	7-1_14:8:46.0	155.2
0	6	2	9	2	5	9	0	83	55	64	7-1_14:8:47.0	155.4
4	8	3	3	5	6	4	3	83	58	66	7-1_14:8:48.0	155.4
6	5	6	6	6	4	7	3	83	53	62	7-1_14:8:49.0	155.9
3	10	4	7	3	7	11	0	83	56	65	7-1_14:8:50.0	156
8	5	8	3	6	3	3	4	83	54	62	7-1_14:8:51.0	156.1
6	4	6	4	9	2	5	2	83	52	61	7-1_14:8:52.0	156.2
4	3	5	9	7	1	1	6	83	56	64	7-1_14:8:53.0	156.2
8	7	9	7	5	3	6	4	83	57	65	7-1_14:8:54.0	156.4
8	3	5	2	9	3	4	3	83	56	64	7-1_14:8:55.0	156.4
3	2	3	7	5	2	4	1	83	55	64	7-1_14:8:56.0	156.8
4	6	3	11	2	1	3	4	83	51	60	7-1_14:8:57.0	157.2
10	7	5	5	4	2	3	8	83	52	61	7-1_14:8:58.0	157.6
8	4	8	5	4	3	4	4	83	57	65	7-1_14:8:59.0	157.7
4	3	9	4	6	4	8	2	83	55	63	7-1_14:9:0.0	157.6
0	3	1	4	14	2	6	0	83	57	65	7-1_14:9:1.0	157.7
3	5	2	8	7	2	3	1	83	55	64	7-1_14:9:2.0	157.7
3	0	7	0	11	5	10	3	83	54	62	7-1_14:9:3.0	157.7
2	4	6	4	7	6	9	2	83	54	63	7-1_14:9:4.0	157.6
6	2	6	4	6	3	4	4	83	55	64	7-1_14:9:5.0	157.7
1	4	2	4	8	4	4	0	83	51	60	7-1_14:9:6.0	157.7
6	7	4	2	7	3	6	4	83	53	61	7-1_14:9:7.0	157.9
6	1	7	4	7	2	3	2	83	53	62	7-1_14:9:8.0	157.9
1	5	0	11	2	2	6	5	83	57	66	7-1_14:9:9.0	157.9
5	3	6	10	3	3	6	4	83	54	62	7-1_14:9:10.0	157.9
6	5	5	6	6	4	6	1	83	51	60	7-1_14:9:11.0	157.9
5	2	5	9	6	3	6	4	83	51	60	7-1_14:9:12.0	157.8
7	4	4	3	4	5	4	4	83	54	62	7-1_14:9:13.0	157.7
1	6	1	9	3	5	9	1	83	55	63	7-1_14:9:14.0	157.5
6	5	8	6	4	3	8	2	83	56	64	7-1_14:9:15.0	157.3
8	7	8	1	7	0	10	3	83	52	61	7-1_14:9:16.0	157.3
9	1	6	7	2	4	6	1	83	54	63	7-1_14:9:17.0	157.4
4	4	4	3	5	0	2	3	83	54	63	7-1_14:9:18.0	156.9
7	2	4	7	5	5	5	2	83	53	61	7-1_14:9:19.0	156.8
5	7	9	6	5	3	6	3	83	55	64	7-1_14:9:20.0	156.7
5	3	5	8	3	5	3	3	83	54	63	7-1_14:9:21.0	156.8
3	7	7	4	7	2	6	3	83	52	61	7-1_14:9:22.0	156.5
2	3	6	0	11	2	5	0	83	55	64	7-1_14:9:23.0	156.4
4	2	5	7	8	5	3	3	83	54	63	7-1_14:9:24.0	156.3
8	1	2	10	5	0	5	4	83	56	64	7-1_14:9:25.0	156.3
9	1	2	2	16	1	14	1	83	55	64	7-1_14:9:26.0	157
3	8	9	4	4	6	4	5	83	56	64	7-1_14:9:27.0	157.4
5	8	7	5	7	2	6	3	83	54	63	7-1_14:9:28.0	157.5
9	3	4	1	13	1	9	2	82	52	61	7-1_14:9:29.0	157.3
2	1	5	1	10	0	5	3	83	54	63	7-1_14:9:30.0	157.4
9	5	8	6	2	3	3	2	83	53	62	7-1_14:9:31.0	157.3
4	2	4	3	4	6	4	2	83	56	65	7-1_14:9:32.0	157.3
8	4	7	8	7	1	4	5	83	55	63	7-1_14:9:33.0	157.3
5	3	5	5	4	3	5	3	83	55	63	7-1_14:9:34.0	157.3
5	6	4	4	3	1	6	1	83	58	67	7-1_14:9:35.0	157.2
8	6	8	7	9	7	1	1	83	55	64	7-1_14:9:36.0	157.3
5	3	5	5	5	3	0	2	83	56	65	7-1_14:9:37.0	157.3
7	2	8	9	4	4	5	2	83	56	64	7-1_14:9:38.0	157.2
5	5	1	3	4	1	3	2	83	54	63	7-1_14:9:39.0	157.2
4	3	6	7	7	3	6	4	83	55	64	7-1_14:9:40.0	157.4
5	3	4	7	8	3	5	4	83	56	64	7-1_14:9:41.0	157.5
9	7	10	3	6	2	4	2	83	50	59	7-1_14:9:42.0	157.9
2	1	10	7	6	3	11	6	83	54	62	7-1_14:9:43.0	157.9
6	6	2	5	6	3	3	2	83	55	64	7-1_14:9:44.0	158.1
3	4	8	5	6	3	7	4	83	52	61	7-1_14:9:45.0	158.8
4	3	2	4	6	3	2	1	83	55	63	7-1_14:9:46.0	159.4
6	4	2	0	2	0	8	2	83	50	59	7-1_14:9:47.0	159.7
7	4	4	6	8	3	4	1	83	53	62	7-1_14:9:48.0	160.1
4	0	9	8	10	4	4	3	83	53	62	7-1_14:9:49.0	160.4
7	6	4	2	4	3	5	5	83	54	63	7-1_14:9:50.0	160.8
9	2	12	13	12	3	3	2	83	55	64	7-1_14:9:51.0	161
5	8	2	2	5	6	4	1	83	56	65	7-1_14:9:52.0	161.1
2	6	4	3	2	3	9	4	83	52	61	7-1_14:9:53.0	161.1
2	1	3	6	4	2	7	2	83	53	62	7-1_14:9:54.0	161.2
6	3	5	4	4	3	7	1	83	54	63	7-1_14:9:55.0	161.4
3	5	4	4	6	5	2	1	83	55	64	7-1_14:9:56.0	161.4
2	1	0	0	1	3	3	0	83	53	61	7-1_14:9:57.0	161.7
5	1	3	2	4	4	0	3	83	57	65	7-1_14:9:58.0	161.8
4	4	4	4	5	6	4	1	83	55	63	7-1_14:9:59.0	161.9
4	2	0	2	9	6	2	1	83	51	60	7-1_14:10:0.0	162.1
2	6	4	6	7	4	7	5	83	55	63	7-1_14:10:1.0	161.8
4	1	2	1	10	2	6	5	83	54	62	7-1_14:10:2.0	161.6
3	7	7	6	7	4	7	3	83	52	61	7-1_14:10:3.0	161.3
6	4	4	2	12	0	11	0	83	54	62	7-1_14:10:4.0	161.1
7	2	5	2	5	6	3	6	83	54	62	7-1_14:10:5.0	160.9
6	1	4	3	9	3	8	3	83	53	62	7-1_14:10:6.0	160.8
4	5	6	7	3	3	3	3	83	53	63	7-1_14:10:7.0	160.8
4	5	5	8	5	2	5	3	83	56	65	7-1_14:10:8.0	160.7
7	4	6	2	5	5	6	4	83	56	65	7-1_14:10:9.0	160.7
7	1	2	6	7	3	4	2	83	51	60	7-1_14:10:10.0	160.6
5	1	1	9	4	0	7	0	83	53	62	7-1_14:10:11.0	160.6
6	3	3	4	12	5	6	4	83	54	63	7-1_14:10:12.0	160.3
11	2	1	5	7	2	7	4	83	54	63	7-1_14:10:13.0	160.5
4	6	8	3	4	3	4	4	83	53	62	7-1_14:10:14.0	160.7
3	8	8	10	2	1	2	1	83	56	65	7-1_14:10:15.0	160.9
3	6	9	5	6	4	6	4	83	53	62	7-1_14:10:16.0	160.7
8	1	2	4	5	4	5	5	83	56	64	7-1_14:10:17.0	160.6
9	4	2	4	8	2	6	1	83	57	66	7-1_14:10:18.0	160.3
2	1	4	11	1	2	1	2	83	58	67	7-1_14:10:19.0	160.1
0	12	8	12	2	2	0	4	83	52	60	7-1_14:10:20.0	159.8
6	5	6	6	5	4	2	4	83	53	62	7-1_14:10:21.0	159.6
4	7	8	8	0	4	3	7	83	54	63	7-1_14:10:22.0	159.3
5	7	6	9	6	1	5	5	83	51	60	7-1_14:10:23.0	159.1
6	5	5	6	3	3	7	3	83	54	62	7-1_14:10:24.0	159
9	2	9	5	0	2	13	0	83	57	66	7-1_14:10:25.0	158.8
5	4	3	6	4	3	3	4	83	55	63	7-1_14:10:26.0	158.6
5	3	6	5	5	5	6	2	83	54	63	7-1_14:10:27.0	158.4
5	6	7	1	8	2	0	5	83	55	63	7-1_14:10:28.0	158.2
3	2	0	11	1	6	11	0	83	52	61	7-1_14:10:29.0	158
7	6	3	4	4	1	9	4	83	55	63	7-1_14:10:30.0	157.9
4	3	2	7	3	5	7	2	83	54	63	7-1_14:10:31.0	157.8
3	4	4	6	3	4	2	2	83	53	61	7-1_14:10:32.0	157.8
4	3	4	9	5	3	11	2	83	51	60	7-1_14:10:33.0	157.8
6	4	4	3	6	3	4	0	83	52	61	7-1_14:10:34.0	157.6
7	4	2	7	7	4	4	3	83	57	66	7-1_14:10:35.0	157.5
4	12	4	2	11	0	0	5	83	54	62	7-1_14:10:36.0	157.3
4	8	4	5	10	2	2	5	83	53	62	7-1_14:10:37.0	157.2
7	4	11	6	5	3	6	2	83	49	58	7-1_14:10:38.0	157.1
9	0	2	13	1	8	2	1	83	55	64	7-1_14:10:39.0	157
5	6	9	3	4	4	9	1	83	54	64	7-1_14:10:40.0	156.9
4	6	7	5	7	2	5	4	83	55	63	7-1_14:10:41.0	156.8
2	4	8	4	9	2	6	4	83	54	63	7-1_14:10:42.0	156.9
4	7	8	3	9	2	5	3	83	56	64	7-1_14:10:43.0	156.7
1	6	6	1	9	0	2	6	83	51	60	7-1_14:10:44.0	156.7
10	2	2	10	2	6	5	2	83	54	63	7-1_14:10:45.0	156.6
4	4	8	4	5	2	7	3	83	53	61	7-1_14:10:46.0	156.6
10	2	2	10	2	5	9	1	83	55	63	7-1_14:10:47.0	156.3
4	4	7	9	9	4	3	0	83	57	65	7-1_14:10:48.0	156.3
5	6	9	6	6	4	5	1	83	52	61	7-1_14:10:49.0	155.8
2	7	1	3	5	3	2	2	83	54	63	7-1_14:10:50.0	155.6
6	5	4	6	5	3	4	1	83	54	63	7-1_14:10:51.0	155.3
5	3	4	5	5	4	5	2	83	55	63	7-1_14:10:52.0	155.2
8	3	9	7	7	4	5	3	83	55	63	7-1_14:10:53.0	155.1
7	2	5	6	6	2	4	4	83	52	61	7-1_14:10:54.0	154.8
5	3	3	7	3	4	6	2	83	54	62	7-1_14:10:55.0	154.4
4	8	14	0	15	1	0	7	83	56	64	7-1_14:10:56.0	154
8	3	5	3	4	4	3	4	83	53	62	7-1_14:10:57.0	153.7
4	4	3	7	4	4	6	1	83	54	62	7-1_14:10:58.0	153.2
3	10	4	4	7	1	4	3	83	53	62	7-1_14:10:59.0	152.6
4	8	6	4	5	4	1	2	83	54	63	7-1_14:11:0.0	152.7
8	4	10	2	8	1	3	4	83	55	64	7-1_14:11:1.0	152.7
7	5	5	2	4	2	10	3	83	57	65	7-1_14:11:2.0	152.7
4	6	5	5	8	3	2	5	83	54	62	7-1_14:11:3.0	152.6
11	0	1	10	2	5	4	3	83	52	61	7-1_14:11:4.0	152.4
4	4	7	5	2	2	9	2	83	53	62	7-1_14:11:5.0	152.4
5	7	6	3	6	2	6	2	83	52	60	7-1_14:11:6.0	152.3
3	8	9	2	6	4	9	1	83	53	62	7-1_14:11:7.0	152.5
9	3	3	7	7	2	3	3	83	54	62	7-1_14:11:8.0	152.5
9	1	2	2	11	0	7	2	83	56	65	7-1_14:11:9.0	152.7
6	4	5	6	6	2	5	3	83	52	62	7-1_14:11:10.0	152.7
8	3	3	4	5	2	6	2	82	55	63	7-1_14:11:11.0	153
4	4	7	7	7	1	6	1	83	54	62	7-1_14:11:12.0	153.3
9	4	5	4	5	3	4	4	83	53	62	7-1_14:11:13.0	153.5
3	6	6	5	5	3	6	2	83	54	63	7-1_14:11:14.0	153.7
4	5	7	4	7	2	5	3	83	55	63	7-1_14:11:15.0	153.9
6	3	3	4	5	5	2	4	83	53	62	7-1_14:11:16.0	154.1
3	5	2	7	8	3	7	5	83	53	62	7-1_14:11:17.0	154.3
4	4	3	3	6	2	4	3	83	54	62	7-1_14:11:18.0	154.5
5	2	6	5	4	5	6	2	83	58	66	7-1_14:11:19.0	154.7
3	3	1	2	2	2	5	1	83	53	61	7-1_14:11:20.0	154.8
4	2	4	4	4	1	10	3	83	54	63	7-1_14:11:21.0	154.8
7	4	4	3	5	4	5	4	83	55	64	7-1_14:11:22.0	155
4	4	2	3	4	0	2	2	83	56	64	7-1_14:11:23.0	155.1
2	5	5	7	12	4	3	5	83	60	68	7-1_14:11:24.0	155.1
6	5	3	8	8	4	5	3	83	56	64	7-1_14:11:25.0	155.4
4	5	2	4	4	6	3	4	83	54	63	7-1_14:11:26.0	155.3
8	8	4	9	3	0	1	1	83	54	63	7-1_14:11:27.0	155.3
5	4	6	6	7	3	4	2	83	55	63	7-1_14:11:28.0	155.1
7	2	6	4	7	1	2	5	83	54	63	7-1_14:11:29.0	155
4	6	7	3	4	1	8	0	83	52	61	7-1_14:11:30.0	154.9
3	2	2	4	11	3	4	2	83	54	63	7-1_14:11:31.0	155
10	1	1	8	8	0	8	1	83	55	64	7-1_14:11:32.0	155.2
9	4	4	3	8	2	5	4	83	52	61	7-1_14:11:33.0	155.2
7	4	4	6	4	4	5	3	83	50	60	7-1_14:11:34.0	154.9
8	1	4	2	7	2	3	4	83	56	65	7-1_14:11:35.0	154.6
4	8	5	10	8	1	10	0	83	55	64	7-1_14:11:36.0	154.2
4	5	5	7	7	3	8	3	83	52	61	7-1_14:11:37.0	153.9
3	10	14	4	2	5	3	4	83	53	62	7-1_14:11:38.0	153.7
4	8	9	5	2	4	2	5	83	53	62	7-1_14:11:39.0	153.5
2	4	5	5	8	1	7	2	83	53	62	7-1_14:11:40.0	153.4
8	1	2	7	8	1	7	5	83	53	62	7-1_14:11:41.0	153.2
7	3	0	6	12	3	4	2	83	58	66	7-1_14:11:42.0	153.1
2	10	9	3	9	2	2	0	83	54	63	7-1_14:11:43.0	153.1
6	3	6	6	5	3	3	4	83	55	63	7-1_14:11:44.0	153.2
2	8	2	2	4	7	3	2	82	53	61	7-1_14:11:45.0	153.2
3	8	7	6	7	5	9	0	83	56	65	7-1_14:11:46.0	153.2
11	0	10	4	12	1	2	2	83	55	63	7-1_14:11:47.0	153.1
7	3	5	6	3	2	4	3	83	54	62	7-1_14:11:48.0	153
4	2	6	3	12	2	3	1	83	52	60	7-1_14:11:49.0	152.8
9	5	5	7	0	4	7	4	83	51	60	7-1_14:11:50.0	152.7
4	8	5	5	6	4	11	2	82	54	62	7-1_14:11:51.0	152.5
4	4	3	4	10	1	2	2	83	50	59	7-1_14:11:52.0	152.3
9	5	9	5	5	4	8	3	83	52	61	7-1_14:11:53.0	152.1
5	1	4	0	10	4	2	3	83	53	62	7-1_14:11:54.0	152
8	5	6	4	4	5	8	2	83	52	61	7-1_14:11:55.0	151.9
4	6	6	2	9	3	6	1	83	56	65	7-1_14:11:56.0	151.8
8	0	10	1	7	6	9	0	83	55	64	7-1_14:11:57.0	151.8
7	1	6	4	7	2	4	2	82	54	62	7-1_14:11:58.0	151.7
5	7	3	7	7	1	4	5	83	53	61	7-1_14:11:59.0	151.5
5	2	9	6	8	1	7	1	83	53	62	7-1_14:12:0.0	151.3
5	6	4	6	4	3	6	3	83	53	62	7-1_14:12:1.0	151.3
7	0	7	4	8	1	2	5	83	53	62	7-1_14:12:2.0	151
3	9	5	4	6	5	10	1	83	53	62	7-1_14:12:3.0	150.8
5	5	3	6	3	3	6	2	83	54	63	7-1_14:12:4.0	150.7
5	5	8	2	8	1	1	4	83	54	63	7-1_14:12:5.0	150.6
5	7	4	7	7	1	5	3	83	53	62	7-1_14:12:6.0	150.4
8	3	10	3	8	2	5	4	83	55	63	7-1_14:12:7.0	150.3
2	8	8	5	6	3	7	2	83	52	61	7-1_14:12:8.0	150.2
3	7	10	3	4	2	6	1	83	52	60	7-1_14:12:9.0	149.9
10	0	4	7	1	3	9	1	83	53	62	7-1_14:12:10.0	149.8
9	2	3	4	6	1	10	3	83	53	62	7-1_14:12:11.0	149.6
5	5	8	6	7	3	4	2	83	53	61	7-1_14:12:12.0	149.5
7	4	4	6	5	4	9	2	82	56	64	7-1_14:12:13.0	149.3
8	0	2	10	2	4	5	1	83	54	62	7-1_14:12:14.0	149.5
3	4	3	6	4	3	3	1	83	52	61	7-1_14:12:15.0	149.8
5	5	6	6	6	1	6	2	83	55	64	7-1_14:12:16.0	149.7
3	4	4	10	3	6	11	1	83	53	62	7-1_14:12:17.0	149.6
4	2	6	5	4	2	8	5	83	55	64	7-1_14:12:18.0	149.4
2	2	2	13	3	4	10	1	83	52	61	7-1_14:12:19.0	149.4
3	5	3	7	1	6	9	4	83	52	61	7-1_14:12:20.0	149.3
2	7	2	9	0	6	10	4	84	54	63	7-1_14:12:21.0	149.3
3	6	4	3	6	4	7	0	83	55	63	7-1_14:12:22.0	149.5
4	6	4	4	7	3	6	2	83	55	64	7-1_14:12:23.0	149.6
5	3	6	5	5	1	3	4	83	53	62	7-1_14:12:24.0	149.7
6	8	5	4	4	4	8	3	83	52	61	7-1_14:12:25.0	149.7
6	2	5	9	8	0	3	3	83	57	66	7-1_14:12:26.0	149.6
2	5	3	3	6	4	7	3	83	55	64	7-1_14:12:27.0	149.6
1	3	0	13	3	3	7	4	83	53	61	7-1_14:12:28.0	149.6
6	2	7	3	3	1	2	5	83	55	64	7-1_14:12:29.0	149.7
5	6	7	9	5	1	3	7	83	52	60	7-1_14:12:30.0	149.7
6	8	5	6	4	2	3	8	83	54	63	7-1_14:12:31.0	149.5
1	5	1	7	5	1	3	1	83	53	62	7-1_14:12:32.0	149.9
8	1	9	3	7	3	6	3	83	54	63	7-1_14:12:33.0	150
6	6	3	7	2	2	3	2	83	51	60	7-1_14:12:34.0	150.2
4	0	11	0	7	7	9	5	83	55	64	7-1_14:12:35.0	150.1
6	4	6	3	6	5	7	2	83	53	62	7-1_14:12:36.0	150.2
4	3	7	3	5	2	3	3	83	54	62	7-1_14:12:37.0	150.1
6	6	3	5	3	2	3	4	83	56	65	7-1_14:12:38.0	150
6	7	3	8	7	1	4	2	83	55	64	7-1_14:12:39.0	150.1
4	1	8	2	9	6	8	3	83	54	63	7-1_14:12:40.0	150.2
6	8	3	9	5	3	7	2	83	57	65	7-1_14:12:41.0	150.4
1	6	4	3	9	3	6	1	83	55	63	7-1_14:12:42.0	150.6
7	4	5	7	4	3	5	3	83	55	64	7-1_14:12:43.0	150.6
6	7	2	6	11	2	11	1	83	54	62	7-1_14:12:44.0	150.6
5	4	5	6	4	1	4	1	83	55	64	7-1_14:12:45.0	150.8
2	2	11	3	3	3	1	2	83	51	60	7-1_14:12:46.0	150.8
5	6	6	5	2	1	5	1	83	53	62	7-1_14:12:47.0	151.1
3	2	6	11	2	2	7	1	83	53	62	7-1_14:12:48.0	150.9
6	6	3	3	4	2	2	1	83	53	62	7-1_14:12:49.0	150.8
4	3	8	7	5	3	6	3	83	53	62	7-1_14:12:50.0	150.6
5	4	2	4	8	5	2	3	83	53	62	7-1_14:12:51.0	150.6
8	8	5	3	8	5	6	3	83	54	62	7-1_14:12:52.0	150.3
4	5	1	5	5	3	3	1	83	52	61	7-1_14:12:53.0	149.7
2	0	7	8	3	1	2	1	83	52	61	7-1_14:12:54.0	149.4
6	5	8	4	10	6	6	6	83	52	60	7-1_14:12:55.0	148.7
2	0	8	2	0	1	0	1	83	57	66	7-1_14:12:56.0	148.5
6	5	4	7	10	4	9	4	83	54	63	7-1_14:12:57.0	148.2
4	2	3	3	8	5	8	3	83	55	63	7-1_14:12:58.0	148
4	3	9	4	3	3	4	6	83	53	62	7-1_14:12:59.0	147.4
10	3	6	4	3	3	5	4	83	54	63	7-1_14:13:0.0	146.9
1	4	3	8	5	1	2	3	83	52	61	7-1_14:13:1.0	146.5
10	2	10	2	7	2	4	3	83	53	62	7-1_14:13:2.0	146
8	1	11	3	9	2	5	1	83	54	62	7-1_14:13:3.0	145.9
7	5	9	3	4	4	8	2	83	53	61	7-1_14:13:4.0	145.4
9	7	8	4	4	5	10	2	83	52	60	7-1_14:13:5.0	145.2
1	3	0	4	5	2	4	2	83	54	63	7-1_14:13:6.0	145
5	2	8	1	8	2	3	3	83	52	61	7-1_14:13:7.0	144.9
6	2	9	2	8	6	12	1	83	53	62	7-1_14:13:8.0	144.7
10	3	9	5	1	1	2	7	83	55	63	7-1_14:13:9.0	144.5
6	5	9	6	1	5	6	7	83	53	62	7-1_14:13:10.0	144.4
2	5	3	8	9	2	7	1	83	57	66	7-1_14:13:11.0	144.5
7	5	4	7	4	3	3	4	83	55	64	7-1_14:13:12.0	144.5
3	4	6	4	7	4	6	4	83	55	63	7-1_14:13:13.0	144.5
8	7	3	8	5	4	7	2	83	51	60	7-1_14:13:14.0	144.5
3	2	9	2	7	3	5	6	83	54	63	7-1_14:13:15.0	144.6
11	6	5	7	3	0	3	4	83	53	61	7-1_14:13:16.0	144.6
1	2	8	1	5	4	5	4	83	57	65	7-1_14:13:17.0	144.6
8	4	10	4	1	2	1	3	83	52	61	7-1_14:13:18.0	144.5
4	2	7	3	6	5	7	5	83	52	61	7-1_14:13:19.0	144.2
4	2	7	4	3	4	4	4	83	54	62	7-1_14:13:20.0	143.8
1	1	7	2	5	8	10	8	84	55	64	7-1_14:13:21.0	143
6	9	2	9	7	0	0	1	83	53	61	7-1_14:13:22.0	142.4
4	6	6	5	6	3	4	4	83	53	62	7-1_14:13:23.0	142.3
9	6	7	7	2	2	4	3	83	51	60	7-1_14:13:24.0	142.1
4	1	10	2	4	6	10	4	83	53	62	7-1_14:13:25.0	141.4
6	3	9	4	3	3	4	6	83	53	63	7-1_14:13:26.0	140.9
5	4	7	4	2	5	3	5	82	54	62	7-1_14:13:27.0	140.5
3	2	6	2	4	2	4	3	83	55	64	7-1_14:13:28.0	140.1
4	1	10	6	2	0	3	0	83	52	61	7-1_14:13:29.0	139.8
4	7	3	5	11	3	6	4	83	54	62	7-1_14:13:30.0	139.1
2	2	9	4	3	2	4	1	83	54	62	7-1_14:13:31.0	138.9
6	5	6	1	2	1	1	0	83	53	62	7-1_14:13:32.0	138.5
9	8	5	3	3	1	5	3	83	54	62	7-1_14:13:33.0	138.3
2	0	6	10	10	5	5	3	83	58	67	7-1_14:13:34.0	138.2
10	9	3	6	9	4	3	2	83	50	59	7-1_14:13:35.0	138.1
2	2	4	3	5	2	10	5	83	55	64	7-1_14:13:36.0	137.9
6	5	5	4	5	3	6	3	83	55	64	7-1_14:13:37.0	138.2
7	7	3	4	5	2	2	1	83	53	61	7-1_14:13:38.0	138.2
4	2	8	8	9	5	5	2	83	51	60	7-1_14:13:39.0	138.1
2	1	6	9	9	4	1	1	83	53	62	7-1_14:13:40.0	138.3
8	8	3	2	3	1	7	5	83	51	60	7-1_14:13:41.0	138.4
8	5	8	5	8	3	6	4	83	52	61	7-1_14:13:42.0	138.4
5	6	1	0	0	0	7	5	83	53	61	7-1_14:13:43.0	138.5
3	5	4	3	2	2	4	4	83	56	64	7-1_14:13:44.0	138.3
6	10	2	4	4	0	9	4	83	58	67	7-1_14:13:45.0	138.3
3	1	3	3	4	2	3	4	83	55	64	7-1_14:13:46.0	138.4
5	3	10	10	10	3	0	0	83	53	61	7-1_14:13:47.0	138.6
3	2	4	10	7	3	3	6	83	53	62	7-1_14:13:48.0	138.4
5	6	6	4	4	2	6	2	83	52	60	7-1_14:13:49.0	138.2
7	4	8	7	8	4	3	2	83	52	60	7-1_14:13:50.0	138.2
3	5	2	2	3	2	10	4	83	54	63	7-1_14:13:51.0	138.2
5	4	5	5	5	3	3	3	83	56	65	7-1_14:13:52.0	138.3
10	3	11	7	4	1	10	3	83	55	64	7-1_14:13:53.0	138.4
6	5	0	3	9	4	4	4	83	53	62	7-1_14:13:54.0	138.3
7	3	6	3	3	4	2	4	83	54	62	7-1_14:13:55.0	138.3
2	7	9	6	4	5	3	5	83	53	62	7-1_14:13:56.0	138.3
3	4	5	9	2	4	2	3	83	52	61	7-1_14:13:57.0	138.1
4	4	5	10	2	3	4	6	83	52	61	7-1_14:13:58.0	137.8
3	4	7	8	2	7	3	3	83	53	62	7-1_14:13:59.0	137.4
4	4	4	4	2	4	8	3	83	54	62	7-1_14:14:0.0	137.2
3	1	8	4	2	1	5	3	83	51	60	7-1_14:14:1.0	137.2
5	5	7	4	5	3	6	1	83	53	62	7-1_14:14:2.0	137.1
8	3	3	7	3	0	9	2	83	55	63	7-1_14:14:3.0	136.9
4	6	4	5	4	4	6	2	83	54	63	7-1_14:14:4.0	136.9
4	3	4	6	5	2	2	5	83	53	62	7-1_14:14:5.0	137.2
1	1	2	8	2	1	2	3	83	54	63	7-1_14:14:6.0	137.2
8	3	5	3	5	3	6	2	83	51	60	7-1_14:14:7.0	137.5
10	6	6	6	4	1	2	6	83	54	62	7-1_14:14:8.0	138
4	2	5	3	9	3	6	3	83	58	66	7-1_14:14:9.0	137.9
4	2	5	3	8	4	7	4	83	55	63	7-1_14:14:10.0	137.7
6	6	6	7	3	1	2	2	83	55	64	7-1_14:14:11.0	137.4
8	6	8	8	4	1	3	2	83	53	62	7-1_14:14:12.0	137.2
5	5	9	5	3	3	3	5	83	52	60	7-1_14:14:13.0	136.9
10	8	3	10	4	2	3	2	83	54	62	7-1_14:14:14.0	136.7
5	4	5	6	6	4	5	4	83	55	64	7-1_14:14:15.0	136.5
2	4	6	3	9	3	7	4	83	53	62	7-1_14:14:16.0	136.4
6	3	8	4	3	2	3	3	83	53	61	7-1_14:14:17.0	135.7
8	4	10	7	3	2	5	2	83	54	62	7-1_14:14:18.0	135.2
8	9	2	12	3	0	0	2	83	53	61	7-1_14:14:19.0	135.2
7	6	5	7	4	5	9	1	83	52	61	7-1_14:14:20.0	135.1
8	5	6	4	5	3	6	4	83	54	62	7-1_14:14:21.0	134.5
7	1	8	3	6	4	7	4	83	53	62	7-1_14:14:22.0	134.5
5	6	2	7	9	2	4	2	83	53	62	7-1_14:14:23.0	134.5
6	4	6	4	7	3	6	4	83	54	63	7-1_14:14:24.0	134.2
5	6	4	6	8	2	6	2	83	56	64	7-1_14:14:25.0	133.9
6	3	8	6	4	2	3	2	83	49	58	7-1_14:14:26.0	133.8
6	8	3	4	10	4	10	4	83	53	62	7-1_14:14:27.0	134
8	10	2	7	12	2	9	2	83	55	63	7-1_14:14:28.0	133.8
10	7	6	12	1	0	2	1	83	53	61	7-1_14:14:29.0	133.9
11	7	1	8	8	1	5	2	83	53	61	7-1_14:14:30.0	133.9
7	4	4	6	6	3	4	3	83	55	64	7-1_14:14:31.0	133.6
