IR940	IR830	RED	YELLOW	GREEN	BLUE	VIOLET400	UV351	Pitch	Roll	Heading	GPSTime	Altitude
0	0	5	7	7	3	4	2	93	148	287	7-10_13:9:4.0	281.1
5	5	1	4	8	6	5	0	93	149	338	7-10_13:9:5.0	282.9
6	5	1	6	8	6	4	1	93	144	358	7-10_13:9:6.0	282.9
2	1	6	6	7	7	1	0	93	148	339	7-10_13:9:7.0	285.1
4	4	3	1	0	2	6	3	93	150	288	7-10_13:9:8.0	285.6
3	1	5	3	3	2	2	1	93	145	335	7-10_13:9:9.0	284.9
6	6	5	6	6	4	5	3	93	109	197	7-10_13:9:10.0	284.1
6	5	4	2	2	2	5	2	93	147	285	7-10_13:9:11.0	283.9
5	3	2	4	5	4	4	4	93	152	188	7-10_13:9:12.0	283.7
4	4	5	6	6	4	4	2	93	153	189	7-10_13:9:13.0	283.9
2	2	3	4	6	7	7	2	93	151	187	7-10_13:9:14.0	284
5	7	2	1	2	3	6	2	93	153	241	7-10_13:9:15.0	283.7
3	0	9	8	5	0	0	0	93	152	187	7-10_13:9:16.0	283.4
3	3	0	0	1	3	10	6	93	153	249	7-10_13:9:17.0	283.4
8	8	4	4	4	4	5	2	92	146	285	7-10_13:9:18.0	282.6
3	2	4	3	3	4	6	3	93	150	237	7-10_13:9:19.0	282.5
5	6	1	0	0	0	7	3	92	151	238	7-10_13:9:20.0	282.3
4	3	4	5	6	5	7	3	93	148	234	7-10_13:9:21.0	282.1
7	5	4	4	7	6	1	1	93	154	191	7-10_13:9:22.0	281.6
4	3	4	3	3	3	4	2	93	143	332	7-10_13:9:23.0	281.4
7	4	4	3	4	3	4	2	93	155	294	7-10_13:9:24.0	281.1
4	5	0	0	1	1	8	3	93	151	247	7-10_13:9:25.0	281.1
6	4	2	2	3	2	3	2	93	152	189	7-10_13:9:26.0	280.8
4	4	0	0	0	0	7	3	93	153	190	7-10_13:9:27.0	280.9
6	1	5	3	4	3	6	2	93	150	288	7-10_13:9:28.0	280.5
5	3	1	1	2	2	7	4	93	153	189	7-10_13:9:29.0	280.6
2	2	1	2	2	2	4	1	94	151	187	7-10_13:9:30.0	280.6
5	5	4	5	7	6	2	2	93	108	196	7-10_13:9:31.0	280.7
2	1	1	3	3	1	8	4	93	151	290	7-10_13:9:32.0	280.6
3	2	5	3	3	3	6	3	93	146	60	7-10_13:9:33.0	280.5
1	4	4	4	5	4	4	2	93	151	290	7-10_13:9:34.0	280.3
4	3	4	4	5	5	1	2	93	151	290	7-10_13:9:35.0	279.9
5	3	7	7	8	8	6	4	93	145	242	7-10_13:9:36.0	279.9
5	3	5	6	7	6	4	3	93	149	339	7-10_13:9:37.0	278.9
7	4	3	4	5	5	1	0	93	149	287	7-10_13:9:38.0	278.5
4	4	4	4	5	5	2	2	93	147	337	7-10_13:9:39.0	278.2
7	5	5	4	5	7	5	3	93	154	241	7-10_13:9:40.0	277.9
1	4	2	2	3	1	2	0	93	97	253	7-10_13:9:41.0	278
5	0	7	7	8	6	8	3	93	154	190	7-10_13:9:42.0	277.9
2	6	2	3	3	5	1	2	93	151	239	7-10_13:9:43.0	277.9
1	0	4	3	2	0	2	0	93	145	76	7-10_13:9:44.0	277.7
2	2	1	2	3	2	2	1	93	156	193	7-10_13:9:45.0	277.8
6	3	8	8	7	5	7	3	93	153	241	7-10_13:9:46.0	277.8
4	6	2	2	5	4	2	2	93	151	247	7-10_13:9:47.0	277.9
0	5	1	0	2	7	0	3	93	147	337	7-10_13:9:48.0	278
6	2	7	6	7	6	6	3	94	151	239	7-10_13:9:49.0	278.5
10	1	10	9	6	2	7	2	93	153	189	7-10_13:9:50.0	278.5
5	1	5	4	2	1	3	0	93	151	239	7-10_13:9:51.0	278.8
3	5	3	3	5	4	5	2	93	145	283	7-10_13:9:52.0	279.1
5	5	5	7	5	6	6	4	92	150	289	7-10_13:9:53.0	279.2
4	7	3	6	9	10	9	5	92	97	287	7-10_13:9:54.0	279.3
7	5	7	8	7	4	7	2	93	149	305	7-10_13:9:55.0	279.4
4	4	4	5	4	3	3	1	93	151	239	7-10_13:9:56.0	279.9
3	3	4	5	4	2	3	1	93	152	291	7-10_13:9:57.0	280.3
3	4	2	1	5	8	6	4	93	148	2	7-10_13:9:58.0	280.3
11	6	9	10	9	4	7	0	93	158	195	7-10_13:9:59.0	281.2
0	2	1	0	1	8	2	6	93	148	286	7-10_13:10:0.0	281.5
4	5	3	5	7	7	6	3	93	152	239	7-10_13:10:1.0	281.9
2	5	4	4	8	7	8	2	93	152	291	7-10_13:10:2.0	282.1
2	0	2	2	4	10	3	7	93	149	3	7-10_13:10:3.0	282.3
7	0	6	2	1	3	2	3	93	147	336	7-10_13:10:4.0	282.3
7	2	8	5	1	5	3	3	92	148	28	7-10_13:10:5.0	282.5
5	4	2	3	5	3	5	0	93	149	244	7-10_13:10:6.0	282.5
0	4	0	4	6	4	5	3	93	152	291	7-10_13:10:7.0	282.6
3	9	7	12	4	2	2	1	93	146	284	7-10_13:10:8.0	282.5
3	4	3	4	7	4	6	1	93	153	189	7-10_13:10:9.0	282.5
5	2	7	5	3	4	3	2	93	150	289	7-10_13:10:10.0	282.5
5	2	6	3	6	8	8	1	93	145	0	7-10_13:10:11.0	282.6
7	5	6	6	5	1	1	0	93	151	289	7-10_13:10:12.0	282.6
4	6	5	7	5	6	5	2	93	150	237	7-10_13:10:13.0	283
3	6	3	8	6	5	5	2	93	149	288	7-10_13:10:14.0	282.9
4	4	5	5	6	4	5	3	93	152	240	7-10_13:10:15.0	282.8
4	0	3	1	5	9	8	1	93	150	306	7-10_13:10:16.0	282.8
5	2	7	4	5	5	5	3	93	154	242	7-10_13:10:17.0	282.5
1	5	5	4	5	9	8	0	93	152	239	7-10_13:10:18.0	282.2
4	1	5	1	8	6	5	2	93	152	291	7-10_13:10:19.0	281.8
0	4	2	5	11	6	6	0	93	156	192	7-10_13:10:20.0	281.4
3	5	8	5	5	3	3	2	93	148	2	7-10_13:10:21.0	281.1
8	0	2	1	3	10	10	2	93	154	242	7-10_13:10:22.0	281.2
4	3	4	5	5	3	3	1	93	146	285	7-10_13:10:23.0	281.2
5	0	5	0	3	10	10	3	93	152	248	7-10_13:10:24.0	281.2
6	3	4	3	4	3	3	4	93	151	289	7-10_13:10:25.0	280.9
0	9	5	12	2	0	0	1	93	158	195	7-10_13:10:26.0	281
7	0	2	3	5	6	6	1	93	153	240	7-10_13:10:27.0	281.1
1	4	6	6	6	0	0	3	93	150	237	7-10_13:10:28.0	281.2
3	6	4	10	3	2	0	3	93	145	0	7-10_13:10:29.0	281.1
7	4	4	3	3	7	6	3	93	150	340	7-10_13:10:30.0	281.2
7	4	6	2	2	7	11	2	92	111	251	7-10_13:10:31.0	281.4
4	6	7	1	4	5	5	4	93	152	240	7-10_13:10:32.0	281.7
3	3	5	3	5	6	5	3	93	148	286	7-10_13:10:33.0	282
2	7	5	6	5	2	2	3	93	153	249	7-10_13:10:34.0	282
4	2	0	5	8	4	3	3	93	154	191	7-10_13:10:35.0	282
3	6	11	2	1	4	5	3	93	114	355	7-10_13:10:36.0	282.1
4	6	2	9	0	4	5	5	93	151	307	7-10_13:10:37.0	282.1
4	1	3	8	4	4	4	2	93	150	289	7-10_13:10:38.0	282.3
2	4	5	7	6	2	5	3	93	157	194	7-10_13:10:39.0	282.3
7	3	1	5	5	5	4	2	93	152	240	7-10_13:10:40.0	282.3
10	0	0	2	9	6	3	1	93	134	272	7-10_13:10:41.0	282.3
8	1	4	1	6	8	7	0	93	152	247	7-10_13:10:42.0	282.3
3	6	10	1	3	6	6	1	93	149	288	7-10_13:10:43.0	281.9
5	1	1	5	8	3	2	3	92	144	282	7-10_13:10:44.0	281.7
2	2	3	5	4	2	3	4	93	147	27	7-10_13:10:45.0	281.9
2	1	3	5	2	8	4	1	93	146	77	7-10_13:10:46.0	282.1
7	1	0	5	9	0	0	2	93	150	306	7-10_13:10:47.0	282.1
4	6	10	0	4	7	9	0	93	147	286	7-10_13:10:48.0	282.1
3	2	3	7	4	4	3	3	93	147	285	7-10_13:10:49.0	282.2
3	3	5	2	7	6	4	0	93	150	288	7-10_13:10:50.0	282.1
4	2	3	2	7	3	3	0	93	148	338	7-10_13:10:51.0	281.9
3	0	1	9	3	2	0	3	92	128	43	7-10_13:10:52.0	281.9
2	3	5	3	6	5	3	2	93	152	240	7-10_13:10:53.0	281.3
5	5	6	2	5	5	4	1	92	124	263	7-10_13:10:54.0	280.8
3	2	4	4	7	3	4	3	93	151	187	7-10_13:10:55.0	280.5
6	5	4	1	7	4	2	3	93	148	338	7-10_13:10:56.0	280.5
2	4	6	2	5	6	8	1	92	122	338	7-10_13:10:57.0	280.5
1	3	5	6	2	4	7	0	93	150	186	7-10_13:10:58.0	280.7
4	3	4	5	3	4	7	2	93	152	188	7-10_13:10:59.0	280.6
3	0	0	10	2	3	8	0	93	153	189	7-10_13:11:0.0	280.5
7	0	0	5	10	0	0	6	93	152	290	7-10_13:11:1.0	280.4
3	4	4	5	4	5	5	2	93	145	118	7-10_13:11:2.0	280.4
0	8	10	4	0	9	2	0	93	150	288	7-10_13:11:3.0	280
3	8	8	2	5	7	1	1	93	153	241	7-10_13:11:4.0	276.8
1	3	4	2	8	4	3	4	92	105	244	7-10_13:11:5.0	276.8
2	6	6	4	7	5	5	1	93	151	238	7-10_13:11:6.0	277.3
7	3	2	2	8	2	3	4	93	153	308	7-10_13:11:7.0	277.3
2	5	7	2	6	5	2	3	93	150	288	7-10_13:11:8.0	278.1
7	5	5	5	1	2	6	0	93	154	250	7-10_13:11:9.0	278.2
3	2	4	4	5	5	5	3	93	107	247	7-10_13:11:10.0	278.5
2	7	7	5	5	5	4	1	93	149	235	7-10_13:11:11.0	278.8
7	3	3	6	4	3	2	1	93	150	245	7-10_13:11:12.0	278.8
2	7	8	4	5	3	2	2	92	107	296	7-10_13:11:13.0	279.3
4	5	4	3	9	1	3	2	93	147	327	7-10_13:11:14.0	279.7
1	5	4	1	4	6	3	2	93	153	240	7-10_13:11:15.0	280.1
7	2	4	9	1	4	7	0	93	153	189	7-10_13:11:16.0	280.4
12	0	0	9	3	9	8	1	93	152	188	7-10_13:11:17.0	280.4
5	3	2	6	6	2	6	3	92	143	23	7-10_13:11:18.0	280.3
3	5	7	2	4	9	1	2	93	147	285	7-10_13:11:19.0	280.2
2	6	4	2	8	4	2	4	93	149	236	7-10_13:11:20.0	280.1
3	1	6	4	3	7	4	1	93	147	337	7-10_13:11:21.0	280.4
5	2	4	7	2	2	8	1	92	145	0	7-10_13:11:22.0	280.4
2	4	4	4	5	5	5	3	92	145	284	7-10_13:11:23.0	280.5
4	2	3	1	5	8	1	3	93	155	192	7-10_13:11:24.0	279.5
5	5	6	5	5	8	2	2	93	146	335	7-10_13:11:25.0	279.7
9	0	0	8	0	10	8	0	93	146	284	7-10_13:11:26.0	279.7
0	6	6	1	7	1	4	2	93	149	304	7-10_13:11:27.0	279.7
3	0	5	2	4	3	2	3	93	147	235	7-10_13:11:28.0	279.6
5	3	7	6	5	6	3	4	93	151	247	7-10_13:11:29.0	279.3
4	1	2	9	1	5	9	1	93	153	240	7-10_13:11:30.0	279.1
3	6	7	3	8	3	4	3	93	152	291	7-10_13:11:31.0	279
2	4	2	3	6	1	7	1	93	151	246	7-10_13:11:32.0	279
4	0	0	4	0	4	9	2	93	146	335	7-10_13:11:33.0	278.8
7	0	6	4	0	7	0	4	93	146	271	7-10_13:11:34.0	278.7
4	4	7	3	7	3	4	3	93	150	276	7-10_13:11:35.0	278.7
5	3	6	4	4	6	2	3	93	145	334	7-10_13:11:36.0	278.2
7	0	8	1	2	1	1	7	93	150	340	7-10_13:11:37.0	278.3
4	2	2	6	1	6	5	2	93	151	290	7-10_13:11:38.0	278.4
7	3	2	5	4	6	4	2	93	103	293	7-10_13:11:39.0	278.7
9	4	7	1	7	3	1	4	93	154	190	7-10_13:11:40.0	278.4
6	0	0	8	0	8	3	4	93	152	188	7-10_13:11:41.0	278.1
3	0	1	8	0	7	6	1	93	158	195	7-10_13:11:42.0	277.8
2	7	6	3	8	3	6	1	93	140	71	7-10_13:11:43.0	277.5
3	5	6	2	8	2	6	0	93	150	339	7-10_13:11:44.0	277.3
5	1	2	6	2	5	3	5	93	145	334	7-10_13:11:45.0	277.1
7	2	2	7	4	7	2	2	93	154	293	7-10_13:11:46.0	277.2
4	4	7	4	5	4	3	1	93	146	26	7-10_13:11:47.0	277.3
3	5	5	4	6	4	4	1	93	152	240	7-10_13:11:48.0	277.6
0	7	8	5	5	5	7	3	93	139	18	7-10_13:11:49.0	277.7
8	3	4	2	4	1	2	3	93	149	339	7-10_13:11:50.0	277.7
3	6	5	2	5	2	6	1	93	151	239	7-10_13:11:51.0	277.9
6	4	6	4	4	4	4	4	93	146	335	7-10_13:11:52.0	278.1
6	2	3	4	4	6	1	1	93	145	76	7-10_13:11:53.0	278.3
0	5	4	5	4	4	6	3	93	149	287	7-10_13:11:54.0	278.4
4	5	2	3	1	4	4	1	93	155	243	7-10_13:11:55.0	278.4
5	5	3	4	3	7	2	1	93	156	243	7-10_13:11:56.0	278.3
2	6	2	6	1	9	3	5	92	152	187	7-10_13:11:57.0	278.3
3	4	1	5	3	5	4	2	93	153	291	7-10_13:11:58.0	278
4	2	3	6	3	4	3	3	93	153	292	7-10_13:11:59.0	278.3
1	4	1	8	0	9	1	3	93	147	235	7-10_13:12:0.0	278.4
1	3	0	8	0	7	1	5	93	153	240	7-10_13:12:1.0	278.7
5	8	5	2	6	8	5	2	93	154	293	7-10_13:12:2.0	278.7
2	0	2	11	2	6	2	5	93	145	24	7-10_13:12:3.0	278.7
8	2	7	1	8	0	7	0	93	151	340	7-10_13:12:4.0	278.6
4	0	2	6	5	3	2	3	93	142	331	7-10_13:12:5.0	278.4
12	0	11	1	12	0	12	0	93	153	189	7-10_13:12:6.0	278.2
4	4	4	4	5	2	4	0	93	151	187	7-10_13:12:7.0	278.5
3	6	1	6	4	10	3	5	93	147	336	7-10_13:12:8.0	278.7
7	2	6	2	7	3	4	2	93	150	237	7-10_13:12:9.0	278.6
4	1	6	5	4	2	5	0	93	149	287	7-10_13:12:10.0	278.5
2	2	2	8	5	1	4	1	92	151	238	7-10_13:12:11.0	278.2
0	10	1	4	0	11	0	7	93	147	337	7-10_13:12:12.0	278.3
8	4	9	0	8	4	10	1	92	127	7	7-10_13:12:13.0	278.3
9	3	8	0	11	5	9	3	93	149	288	7-10_13:12:14.0	276.8
3	2	2	2	10	2	7	0	93	151	289	7-10_13:12:15.0	276.7
6	4	6	0	8	5	7	2	93	152	239	7-10_13:12:16.0	276.5
5	3	7	4	5	3	4	2	93	149	287	7-10_13:12:17.0	276.5
2	3	2	4	6	3	6	2	93	155	243	7-10_13:12:18.0	276.5
1	6	0	6	4	5	2	4	93	147	1	7-10_13:12:19.0	276.5
2	3	2	3	8	3	8	0	93	148	286	7-10_13:12:20.0	276.5
3	1	4	2	7	2	7	1	94	151	290	7-10_13:12:21.0	276.5
2	3	2	3	6	4	7	2	92	148	337	7-10_13:12:22.0	276.5
0	8	1	5	3	8	2	4	93	154	190	7-10_13:12:23.0	276.5
6	2	5	0	7	6	6	3	93	153	240	7-10_13:12:24.0	276.5
4	4	4	7	0	5	0	4	93	150	237	7-10_13:12:25.0	276.5
3	7	2	8	3	5	3	3	92	98	339	7-10_13:12:26.0	276.5
3	5	4	4	8	4	6	1	93	148	235	7-10_13:12:27.0	276.5
0	4	0	7	6	1	6	0	93	152	239	7-10_13:12:28.0	276.5
6	5	6	5	1	8	2	4	93	147	286	7-10_13:12:29.0	276.5
3	3	3	2	10	5	9	0	92	149	236	7-10_13:12:30.0	276.5
2	6	4	3	6	5	5	2	92	141	279	7-10_13:12:31.0	276.5
5	2	4	1	10	5	8	1	93	150	237	7-10_13:12:32.0	276.5
7	4	6	5	1	5	6	0	93	150	289	7-10_13:12:33.0	276.5
7	5	5	2	5	7	5	2	93	148	28	7-10_13:12:34.0	272.9
4	3	4	4	5	3	5	0	93	158	194	7-10_13:12:35.0	275.4
0	3	1	6	6	0	5	1	93	153	291	7-10_13:12:36.0	276.6
0	4	0	4	11	0	7	0	93	156	192	7-10_13:12:37.0	278.4
5	3	5	2	6	6	5	1	93	156	192	7-10_13:12:38.0	278.9
4	4	7	4	3	8	4	3	93	151	289	7-10_13:12:39.0	279.9
7	4	9	4	1	9	2	2	93	148	337	7-10_13:12:40.0	280.6
5	7	3	8	2	3	8	0	93	152	291	7-10_13:12:41.0	281
3	6	2	8	3	4	6	1	93	150	340	7-10_13:12:42.0	281.1
7	3	4	5	4	4	5	1	93	149	287	7-10_13:12:43.0	280.6
4	4	1	4	7	2	9	0	92	136	222	7-10_13:12:44.0	279.5
3	0	8	0	7	7	5	1	93	151	290	7-10_13:12:45.0	281.2
5	3	4	3	4	7	2	4	93	148	287	7-10_13:12:46.0	281.4
1	0	4	0	10	5	7	3	92	107	245	7-10_13:12:47.0	282.5
4	1	1	3	7	3	5	2	93	153	241	7-10_13:12:48.0	283.1
6	5	2	7	6	1	4	3	92	150	237	7-10_13:12:49.0	284.7
6	4	5	6	2	5	7	1	93	148	236	7-10_13:12:50.0	284.2
3	4	6	4	0	8	5	0	93	149	288	7-10_13:12:51.0	283.1
3	5	3	7	6	2	6	1	92	125	5	7-10_13:12:52.0	283.3
1	4	1	4	7	4	4	3	93	147	337	7-10_13:12:53.0	283.5
6	4	5	5	2	5	4	0	93	151	289	7-10_13:12:54.0	283.3
5	6	4	7	4	4	3	2	93	151	290	7-10_13:12:55.0	284.1
1	2	4	1	9	3	3	3	93	154	242	7-10_13:12:56.0	284.6
0	3	2	3	8	5	4	3	93	147	285	7-10_13:12:57.0	284.8
8	2	8	7	0	2	7	0	93	154	190	7-10_13:12:58.0	284.9
2	2	8	2	1	7	2	1	93	155	243	7-10_13:12:59.0	285.1
3	1	10	3	2	3	6	0	93	155	244	7-10_13:13:0.0	285.5
3	4	5	4	8	1	3	2	93	149	287	7-10_13:13:1.0	284.4
4	5	3	4	8	2	5	4	93	149	338	7-10_13:13:2.0	284.7
6	6	2	5	9	3	4	4	93	147	337	7-10_13:13:3.0	285.4
0	3	2	0	9	6	1	4	93	147	27	7-10_13:13:4.0	285.8
3	3	4	4	2	7	2	3	94	151	239	7-10_13:13:5.0	285.2
2	0	9	5	1	4	8	1	93	151	238	7-10_13:13:6.0	282
7	4	3	7	3	5	9	2	93	149	288	7-10_13:13:7.0	281
4	6	4	3	7	4	2	4	93	151	341	7-10_13:13:8.0	279.1
4	8	3	4	7	5	6	2	93	148	287	7-10_13:13:9.0	279
8	8	0	7	9	3	5	4	93	149	339	7-10_13:13:10.0	277.5
2	3	7	3	5	4	8	1	93	150	288	7-10_13:13:11.0	276.5
4	6	5	3	8	3	2	3	93	151	186	7-10_13:13:12.0	276.5
6	3	3	7	5	4	6	3	93	149	29	7-10_13:13:13.0	276
2	1	4	2	2	8	4	0	93	151	238	7-10_13:13:14.0	276.1
2	3	3	4	5	5	3	2	93	147	27	7-10_13:13:15.0	275.1
1	1	8	3	2	5	5	0	94	150	340	7-10_13:13:16.0	276.1
2	4	6	3	4	4	3	2	93	150	237	7-10_13:13:17.0	275.6
7	6	1	7	7	2	5	5	92	109	197	7-10_13:13:18.0	277.3
3	2	5	4	4	2	5	1	93	146	284	7-10_13:13:19.0	276.6
2	2	9	4	3	2	8	3	93	145	24	7-10_13:13:20.0	276.8
6	4	0	5	4	8	0	3	93	151	290	7-10_13:13:21.0	277.9
0	2	9	4	4	4	8	1	93	152	239	7-10_13:13:22.0	277.9
2	0	4	5	0	6	5	3	92	154	240	7-10_13:13:23.0	277.9
1	1	7	2	3	5	6	2	93	150	289	7-10_13:13:24.0	277.9
6	5	5	5	8	2	6	4	93	153	292	7-10_13:13:25.0	277.9
3	0	5	7	2	0	4	4	94	152	240	7-10_13:13:26.0	277.9
6	6	2	4	7	6	0	2	93	152	260	7-10_13:13:27.0	277.9
2	3	5	1	2	8	4	0	92	154	190	7-10_13:13:28.0	276.6
6	5	5	7	6	5	2	4	94	150	237	7-10_13:13:29.0	273.6
4	4	3	2	4	8	3	1	93	146	26	7-10_13:13:30.0	275.4
3	4	5	5	3	6	4	3	93	150	289	7-10_13:13:31.0	274.4
2	1	1	9	5	4	0	2	93	148	337	7-10_13:13:32.0	272.6
4	4	6	7	6	5	4	4	93	153	190	7-10_13:13:33.0	273.9
6	6	2	0	6	6	4	0	92	145	283	7-10_13:13:34.0	274.1
7	5	1	7	8	7	1	3	93	153	240	7-10_13:13:35.0	272.7
5	2	4	10	7	3	3	4	93	151	187	7-10_13:13:36.0	269.7
5	3	5	6	8	3	5	4	93	151	237	7-10_13:13:37.0	268.8
5	6	4	6	6	6	3	3	93	154	292	7-10_13:13:38.0	269.2
5	3	3	6	6	1	4	3	93	149	339	7-10_13:13:39.0	269
0	0	9	2	1	0	8	1	93	153	190	7-10_13:13:40.0	268.6
9	8	3	4	10	8	2	3	93	148	235	7-10_13:13:41.0	268.2
4	3	4	5	4	4	4	3	93	145	25	7-10_13:13:42.0	267.9
8	5	2	3	9	7	2	0	93	147	27	7-10_13:13:43.0	266.7
3	4	1	8	7	4	0	0	93	146	26	7-10_13:13:44.0	265.8
0	0	7	6	4	1	7	6	93	148	338	7-10_13:13:45.0	266
8	7	0	0	6	8	2	1	93	144	23	7-10_13:13:46.0	265.9
6	5	5	1	4	6	7	3	92	141	228	7-10_13:13:47.0	266.2
6	6	4	2	4	7	4	2	93	152	239	7-10_13:13:48.0	266.8
0	0	6	4	2	0	6	2	93	146	336	7-10_13:13:49.0	266.5
5	5	0	3	4	5	7	2	93	148	286	7-10_13:13:50.0	267.1
8	6	5	3	4	6	5	0	92	150	339	7-10_13:13:51.0	267.5
4	4	0	2	3	4	7	2	93	142	73	7-10_13:13:52.0	267.7
7	7	3	4	5	7	0	0	93	151	187	7-10_13:13:53.0	267.9
6	5	3	4	4	6	6	2	93	148	286	7-10_13:13:54.0	267.7
5	4	0	2	4	7	7	2	93	102	343	7-10_13:13:55.0	267.9
5	5	3	5	5	5	5	0	93	141	72	7-10_13:13:56.0	267.6
4	4	4	4	6	10	0	0	93	154	241	7-10_13:13:57.0	267.5
5	6	4	1	3	8	2	0	92	102	343	7-10_13:13:58.0	266.3
5	4	5	4	2	2	4	2	93	153	241	7-10_13:13:59.0	265.9
4	3	9	7	4	6	0	0	94	152	239	7-10_13:14:0.0	265.8
7	7	2	3	3	5	6	3	93	148	337	7-10_13:14:1.0	265.3
1	1	7	9	12	9	0	0	93	150	237	7-10_13:14:2.0	264.5
4	5	7	5	3	4	3	2	93	142	330	7-10_13:14:3.0	263.2
6	4	4	2	3	3	6	6	93	151	238	7-10_13:14:4.0	263.1
0	0	5	4	5	6	3	2	93	151	340	7-10_13:14:5.0	262.7
5	4	4	3	4	6	4	1	93	148	338	7-10_13:14:6.0	262.1
2	2	6	7	8	7	2	0	93	148	286	7-10_13:14:7.0	262.2
3	3	3	3	5	5	6	3	93	150	340	7-10_13:14:8.0	263.4
2	3	1	3	7	10	2	1	93	153	189	7-10_13:14:9.0	263.4
4	2	3	2	4	4	3	2	93	147	337	7-10_13:14:10.0	263.8
1	0	8	6	6	4	0	0	93	151	239	7-10_13:14:11.0	263.8
4	2	5	5	8	7	3	2	93	147	337	7-10_13:14:12.0	263.9
3	2	5	8	8	7	3	1	93	148	287	7-10_13:14:13.0	264.9
7	7	4	5	4	3	7	3	93	149	287	7-10_13:14:14.0	265.6
7	5	0	0	3	4	3	1	92	145	334	7-10_13:14:15.0	265.8
3	3	5	7	9	6	4	2	93	152	239	7-10_13:14:16.0	264.8
3	3	7	4	2	0	2	0	93	149	236	7-10_13:14:17.0	265.2
1	0	3	6	10	11	3	1	92	147	336	7-10_13:14:18.0	266.3
10	8	0	0	1	3	9	6	93	152	239	7-10_13:14:19.0	267.3
4	4	6	8	11	10	2	1	93	151	290	7-10_13:14:20.0	267.6
2	2	5	4	5	4	2	1	92	147	285	7-10_13:14:21.0	267.3
6	6	4	5	5	4	6	3	93	153	241	7-10_13:14:22.0	268.3
3	4	3	4	6	6	6	2	93	147	27	7-10_13:14:23.0	269
3	3	4	5	7	6	7	3	92	150	238	7-10_13:14:24.0	269.9
4	3	6	7	7	7	3	1	93	151	239	7-10_13:14:25.0	270.3
6	3	3	3	3	3	4	2	93	146	335	7-10_13:14:26.0	270.8
1	3	11	11	12	10	2	1	93	154	292	7-10_13:14:27.0	271.2
5	6	4	3	2	2	4	2	93	148	337	7-10_13:14:28.0	271.9
4	3	2	2	2	4	8	5	93	153	240	7-10_13:14:29.0	272.3
2	5	2	3	4	4	4	2	93	150	340	7-10_13:14:30.0	272.7
6	6	5	4	5	4	4	3	93	152	239	7-10_13:14:31.0	273.2
3	5	2	2	4	4	7	4	92	101	32	7-10_13:14:32.0	273.6
6	6	4	4	5	4	3	2	93	153	291	7-10_13:14:33.0	273.3
3	1	9	9	10	9	1	0	93	156	243	7-10_13:14:34.0	273.8
2	1	9	9	9	10	4	2	92	147	337	7-10_13:14:35.0	273.9
5	7	2	2	3	3	4	1	93	151	290	7-10_13:14:36.0	274
7	6	2	1	1	1	2	0	94	103	344	7-10_13:14:37.0	273.1
2	4	3	4	4	4	4	3	93	152	240	7-10_13:14:38.0	272.1
2	2	3	4	4	5	8	5	93	146	26	7-10_13:14:39.0	272.5
3	7	1	2	3	3	8	3	93	149	339	7-10_13:14:40.0	272.7
4	3	4	3	4	5	3	2	93	153	292	7-10_13:14:41.0	272.7
6	7	1	0	1	1	6	4	92	150	237	7-10_13:14:42.0	272.8
6	5	4	3	4	4	4	2	93	148	286	7-10_13:14:43.0	272.4
0	0	4	5	4	2	10	5	93	151	341	7-10_13:14:44.0	271.9
4	3	5	5	7	5	4	1	93	148	235	7-10_13:14:45.0	272.8
0	0	4	4	4	4	10	5	93	153	240	7-10_13:14:46.0	272.9
7	4	5	5	7	8	3	1	93	146	335	7-10_13:14:47.0	272.8
0	1	2	1	1	0	5	2	93	144	24	7-10_13:14:48.0	273
5	7	3	3	5	5	2	1	93	154	190	7-10_13:14:49.0	272.3
3	10	0	0	1	1	2	0	93	149	339	7-10_13:14:50.0	273.2
6	5	4	6	8	8	3	3	93	146	26	7-10_13:14:51.0	273
0	0	2	2	1	1	5	1	93	143	22	7-10_13:14:52.0	273.2
5	1	6	7	8	7	6	3	91	127	265	7-10_13:14:53.0	273.5
6	5	2	2	1	0	6	1	93	148	337	7-10_13:14:54.0	274.1
6	8	2	3	5	6	4	1	93	145	282	7-10_13:14:55.0	274.5
5	4	9	10	11	10	9	6	92	146	335	7-10_13:14:56.0	274.8
4	2	1	2	4	4	3	0	93	154	241	7-10_13:14:57.0	275.4
2	5	3	2	3	3	5	0	93	142	22	7-10_13:14:58.0	276.2
5	5	3	4	5	5	5	3	93	151	238	7-10_13:14:59.0	275.9
3	2	6	4	4	3	6	1	93	154	241	7-10_13:15:0.0	275.5
5	6	1	2	4	4	0	1	93	155	191	7-10_13:15:1.0	275
0	1	1	0	0	0	1	0	93	155	191	7-10_13:15:2.0	275.1
5	3	7	6	7	6	7	4	92	155	243	7-10_13:15:3.0	274.2
4	4	6	5	3	3	5	2	93	156	192	7-10_13:15:4.0	273.7
0	3	1	0	0	0	0	0	93	148	338	7-10_13:15:5.0	272.9
3	4	0	0	2	4	0	1	94	151	238	7-10_13:15:6.0	272.8
3	4	2	3	6	6	2	3	93	146	26	7-10_13:15:7.0	273.1
3	4	3	5	6	7	5	2	93	149	236	7-10_13:15:8.0	273.1
4	1	5	4	4	3	4	1	93	147	27	7-10_13:15:9.0	272.9
1	2	2	2	1	2	2	1	93	146	284	7-10_13:15:10.0	272.7
6	3	7	8	6	4	7	2	93	152	239	7-10_13:15:11.0	272.6
3	5	4	6	8	9	5	5	93	151	290	7-10_13:15:12.0	273
3	5	3	3	4	5	4	2	93	148	337	7-10_13:15:13.0	272.6
7	5	6	6	10	8	9	5	94	147	285	7-10_13:15:14.0	272.7
9	3	10	8	8	4	9	3	93	146	336	7-10_13:15:15.0	272.5
8	4	4	6	8	7	8	4	93	144	75	7-10_13:15:16.0	272.9
5	3	6	5	5	5	7	2	93	153	189	7-10_13:15:17.0	272.9
5	1	6	4	3	3	3	1	93	148	337	7-10_13:15:18.0	272.3
1	3	0	2	4	4	2	2	93	150	288	7-10_13:15:19.0	272.9
4	2	3	4	4	3	4	2	93	150	288	7-10_13:15:20.0	272.9
2	3	2	1	2	4	1	3	93	151	239	7-10_13:15:21.0	272.6
9	2	10	6	3	2	4	1	93	145	24	7-10_13:15:22.0	272.1
3	9	4	7	12	9	10	3	93	147	26	7-10_13:15:23.0	272
6	2	7	4	4	1	4	0	93	155	243	7-10_13:15:24.0	272.3
5	3	6	8	7	2	6	0	93	149	287	7-10_13:15:25.0	272.3
2	2	1	0	2	3	2	3	93	152	291	7-10_13:15:26.0	272.8
6	5	6	8	8	5	7	2	93	153	292	7-10_13:15:27.0	272.8
2	2	2	1	2	2	1	3	93	152	240	7-10_13:15:28.0	272.6
4	4	4	2	5	4	4	2	93	149	288	7-10_13:15:29.0	272
3	4	4	4	4	2	3	1	93	151	239	7-10_13:15:30.0	272.2
6	5	7	6	6	4	5	2	93	154	242	7-10_13:15:31.0	272
2	4	2	0	3	10	5	7	93	150	341	7-10_13:15:32.0	272.4
6	2	6	1	3	6	3	4	93	153	240	7-10_13:15:33.0	271.5
5	0	4	3	3	7	3	3	93	149	287	7-10_13:15:34.0	271.6
6	7	6	6	6	5	5	2	93	154	293	7-10_13:15:35.0	271.7
6	1	5	3	0	0	0	0	92	151	187	7-10_13:15:36.0	271.6
9	4	8	6	5	1	3	0	93	152	240	7-10_13:15:37.0	271.6
0	5	0	4	6	4	5	2	93	147	336	7-10_13:15:38.0	270.7
1	3	1	3	5	7	7	4	93	153	240	7-10_13:15:39.0	270.6
5	8	5	7	10	5	7	2	92	125	250	7-10_13:15:40.0	270.9
7	1	7	4	1	2	1	2	93	146	271	7-10_13:15:41.0	270.4
5	1	4	0	2	1	2	1	92	150	231	7-10_13:15:42.0	269.8
0	4	0	3	7	6	6	5	93	145	44	7-10_13:15:43.0	269.6
6	3	6	3	6	5	6	1	93	148	273	7-10_13:15:44.0	269.7
10	1	6	2	0	1	1	2	93	150	231	7-10_13:15:45.0	268.9
1	6	2	5	10	10	11	1	93	149	274	7-10_13:15:46.0	267.9
4	6	6	9	5	0	1	2	93	153	190	7-10_13:15:47.0	268
0	9	1	10	10	3	5	1	93	150	275	7-10_13:15:48.0	266.5
4	6	5	6	5	4	5	1	93	148	274	7-10_13:15:49.0	266.1
1	3	1	4	9	5	6	2	93	149	319	7-10_13:15:50.0	266
7	0	3	0	2	2	2	5	93	149	319	7-10_13:15:51.0	265.1
3	4	1	7	7	4	6	2	93	149	274	7-10_13:15:52.0	263.9
4	4	3	4	6	3	3	1	92	148	272	7-10_13:15:53.0	263.8
7	3	8	4	2	2	2	1	93	146	316	7-10_13:15:54.0	264.4
4	3	1	3	5	5	5	3	93	152	278	7-10_13:15:55.0	264.3
8	1	4	0	2	5	5	4	93	149	274	7-10_13:15:56.0	264.3
8	1	2	1	2	5	3	6	93	150	320	7-10_13:15:57.0	264
6	0	2	0	3	9	7	6	93	148	318	7-10_13:15:58.0	264.1
3	4	4	4	7	4	5	1	93	145	359	7-10_13:15:59.0	264.3
2	6	3	5	8	5	5	2	93	148	228	7-10_13:16:0.0	264.3
1	6	6	6	5	4	3	0	92	148	317	7-10_13:16:1.0	264.6
3	1	3	1	4	10	10	0	93	148	318	7-10_13:16:2.0	263.8
1	6	5	6	6	6	5	1	93	148	318	7-10_13:16:3.0	264.2
6	1	5	0	1	8	8	3	93	150	275	7-10_13:16:4.0	264.9
0	8	3	9	8	2	2	1	93	146	317	7-10_13:16:5.0	265.2
5	2	3	4	9	2	4	3	93	146	0	7-10_13:16:6.0	265.8
8	2	5	3	2	3	4	5	93	152	277	7-10_13:16:7.0	265.7
6	4	5	4	4	3	2	3	93	149	320	7-10_13:16:8.0	265.8
8	2	8	3	0	3	4	5	93	134	349	7-10_13:16:9.0	266
3	3	4	3	7	3	4	3	92	149	229	7-10_13:16:10.0	265.9
4	1	5	0	2	9	10	4	93	150	275	7-10_13:16:11.0	265.8
3	5	2	6	3	6	5	0	92	146	271	7-10_13:16:12.0	265.7
7	0	2	0	8	6	5	3	92	149	320	7-10_13:16:13.0	265.8
7	4	6	5	4	1	1	4	93	150	275	7-10_13:16:14.0	266.1
5	4	3	6	6	2	2	2	93	143	313	7-10_13:16:15.0	266.2
4	4	3	5	3	6	6	2	93	150	276	7-10_13:16:16.0	266.3
7	3	2	4	3	6	7	1	93	151	277	7-10_13:16:17.0	266.6
8	5	4	4	1	10	9	3	93	149	319	7-10_13:16:18.0	267.3
7	3	6	1	2	8	8	2	93	142	130	7-10_13:16:19.0	267.6
7	1	5	1	6	2	4	3	93	151	276	7-10_13:16:20.0	267.8
3	7	5	7	4	2	2	2	92	149	274	7-10_13:16:21.0	268.1
2	4	5	4	7	4	3	2	93	145	270	7-10_13:16:22.0	268.2
4	5	4	5	3	5	5	2	93	150	231	7-10_13:16:23.0	268.4
7	5	2	6	3	7	7	0	93	151	231	7-10_13:16:24.0	268.5
2	5	8	4	5	3	3	4	92	148	2	7-10_13:16:25.0	268.6
3	3	4	4	7	4	3	3	93	150	275	7-10_13:16:26.0	268.7
5	5	5	3	4	8	7	2	93	153	234	7-10_13:16:27.0	268.9
0	5	4	2	8	2	3	4	93	152	189	7-10_13:16:28.0	269.1
1	9	6	8	2	1	2	5	93	156	238	7-10_13:16:29.0	269.3
3	3	6	4	4	3	4	3	93	155	192	7-10_13:16:30.0	269.5
4	4	6	4	5	4	5	1	93	147	317	7-10_13:16:31.0	269.4
4	2	2	7	2	5	6	2	93	145	270	7-10_13:16:32.0	269.5
5	3	3	5	9	2	2	1	93	146	0	7-10_13:16:33.0	269.8
4	1	1	6	8	3	2	1	93	152	278	7-10_13:16:34.0	270.1
2	7	4	5	4	2	2	4	93	156	192	7-10_13:16:35.0	270.5
3	4	4	5	7	3	4	2	92	148	319	7-10_13:16:36.0	270.7
1	5	6	4	1	8	9	1	92	148	274	7-10_13:16:37.0	271.2
3	2	3	7	6	2	2	3	93	146	336	7-10_13:16:38.0	271.2
6	3	3	5	4	5	3	3	93	154	325	7-10_13:16:39.0	272.3
7	3	4	3	4	8	6	2	94	149	275	7-10_13:16:40.0	272.8
9	1	1	4	7	3	2	1	93	149	230	7-10_13:16:41.0	273.3
3	3	4	3	7	2	3	3	93	150	230	7-10_13:16:42.0	273.9
3	6	7	4	2	8	8	2	92	121	292	7-10_13:16:43.0	274.2
8	3	2	3	6	2	3	2	92	144	358	7-10_13:16:44.0	274.4
6	4	3	4	5	5	3	2	92	148	318	7-10_13:16:45.0	274.5
1	4	7	5	3	4	5	2	93	147	1	7-10_13:16:46.0	274.7
4	1	0	7	5	3	1	3	93	154	235	7-10_13:16:47.0	274.9
4	6	6	5	3	7	6	2	94	149	275	7-10_13:16:48.0	274.9
2	9	12	0	2	12	11	0	93	149	319	7-10_13:16:49.0	275
8	2	2	1	10	4	3	1	93	151	276	7-10_13:16:50.0	275.1
3	3	2	8	4	1	5	4	92	118	243	7-10_13:16:51.0	275.2
6	2	3	4	6	3	3	3	93	151	232	7-10_13:16:52.0	275.3
4	1	1	5	8	2	1	2	93	152	232	7-10_13:16:53.0	275.3
3	2	3	7	4	2	3	3	93	150	231	7-10_13:16:54.0	275.2
3	2	2	8	3	1	3	4	93	153	279	7-10_13:16:55.0	274.9
8	2	2	4	6	4	2	3	94	151	276	7-10_13:16:56.0	275
3	7	6	3	4	8	7	1	93	150	320	7-10_13:16:57.0	275
4	1	2	8	3	2	1	6	93	150	230	7-10_13:16:58.0	275.2
0	7	7	7	0	7	11	0	94	154	242	7-10_13:16:59.0	275.2
1	8	9	2	2	8	11	0	93	148	274	7-10_13:17:0.0	275.5
5	1	2	10	3	2	6	2	93	150	231	7-10_13:17:1.0	275.7
5	3	3	6	4	4	1	3	93	152	232	7-10_13:17:2.0	275.8
8	1	1	4	7	1	4	5	93	154	190	7-10_13:17:3.0	275.6
1	2	3	4	6	4	6	0	92	138	309	7-10_13:17:4.0	275.5
3	1	2	4	7	3	4	2	93	144	42	7-10_13:17:5.0	275.1
6	1	0	7	6	0	3	4	93	151	231	7-10_13:17:6.0	274.9
5	4	6	3	5	6	3	2	93	148	2	7-10_13:17:7.0	274.8
5	2	3	4	4	3	4	2	93	153	189	7-10_13:17:8.0	274.9
8	2	4	5	5	3	1	4	93	145	43	7-10_13:17:9.0	274.9
4	5	7	2	1	9	8	2	93	149	4	7-10_13:17:10.0	275
10	1	1	6	5	1	0	5	93	151	321	7-10_13:17:11.0	275.1
5	5	6	4	1	6	5	3	92	155	236	7-10_13:17:12.0	275.2
5	3	3	9	1	4	7	2	93	150	276	7-10_13:17:13.0	275.2
7	2	3	8	4	4	4	2	93	152	277	7-10_13:17:14.0	275.3
3	6	7	2	5	7	4	3	93	145	0	7-10_13:17:15.0	275.4
4	4	3	5	3	3	7	1	93	150	237	7-10_13:17:16.0	275.3
5	1	2	4	5	4	6	2	93	114	239	7-10_13:17:17.0	275.4
3	3	3	5	4	7	9	2	93	152	278	7-10_13:17:18.0	275.4
2	4	4	6	5	4	7	1	93	149	3	7-10_13:17:19.0	275.4
3	5	6	5	3	4	4	1	92	116	241	7-10_13:17:20.0	275.4
9	0	0	8	4	2	7	1	93	149	275	7-10_13:17:21.0	275.5
3	3	4	2	8	6	2	3	93	151	231	7-10_13:17:22.0	275.6
5	4	4	6	3	4	5	1	93	151	277	7-10_13:17:23.0	275.7
3	6	7	2	6	6	3	3	93	154	235	7-10_13:17:24.0	275.7
7	1	2	10	2	7	10	1	93	111	282	7-10_13:17:25.0	275.6
4	5	7	5	4	4	6	2	93	147	272	7-10_13:17:26.0	275.8
3	8	9	2	6	4	2	5	93	143	131	7-10_13:17:27.0	275.8
5	6	6	4	6	2	4	2	93	152	278	7-10_13:17:28.0	275.9
4	4	4	5	2	10	4	1	93	148	318	7-10_13:17:29.0	276.1
4	3	3	4	5	6	4	1	92	155	281	7-10_13:17:30.0	276.2
3	8	7	3	8	0	4	4	93	148	318	7-10_13:17:31.0	276.4
3	4	4	3	7	5	3	3	93	148	273	7-10_13:17:32.0	276.6
5	4	6	7	5	2	7	4	93	149	320	7-10_13:17:33.0	276.9
6	4	4	5	6	7	3	3	93	150	275	7-10_13:17:34.0	277
4	4	6	5	4	5	4	3	93	147	318	7-10_13:17:35.0	277.3
5	3	4	5	1	4	5	1	93	145	44	7-10_13:17:36.0	277.4
3	2	2	4	6	7	3	1	93	152	278	7-10_13:17:37.0	277.5
5	4	5	5	6	4	4	2	92	149	275	7-10_13:17:38.0	277.4
4	2	2	4	2	3	6	1	93	151	232	7-10_13:17:39.0	277.5
7	4	4	6	4	9	3	3	93	150	276	7-10_13:17:40.0	277.5
2	6	6	3	8	3	4	4	93	151	277	7-10_13:17:41.0	277.5
6	4	6	5	4	6	2	2	93	151	276	7-10_13:17:42.0	277.6
0	2	0	2	4	0	9	1	93	110	248	7-10_13:17:43.0	277.6
3	5	8	1	7	3	0	5	92	148	318	7-10_13:17:44.0	277.7
4	4	6	2	8	5	0	3	93	153	279	7-10_13:17:45.0	277.8
4	2	2	6	2	5	6	0	94	152	240	7-10_13:17:46.0	277.8
5	3	5	4	3	5	2	4	92	150	276	7-10_13:17:47.0	278
2	5	4	1	6	1	7	0	93	150	276	7-10_13:17:48.0	278
5	3	2	9	5	5	6	1	93	147	285	7-10_13:17:49.0	278
3	4	5	6	6	4	6	3	92	150	230	7-10_13:17:50.0	278
5	0	5	2	1	6	1	4	93	145	44	7-10_13:17:51.0	278.1
6	2	4	6	3	8	4	3	93	151	232	7-10_13:17:52.0	278
5	6	6	2	8	5	1	2	93	144	42	7-10_13:17:53.0	278
8	3	5	6	4	11	2	2	92	132	257	7-10_13:17:54.0	278
2	8	8	0	10	0	2	3	93	152	233	7-10_13:17:55.0	278
1	3	3	5	3	3	7	2	93	151	322	7-10_13:17:56.0	277.9
9	3	1	3	2	7	2	2	93	148	2	7-10_13:17:57.0	277.8
2	6	8	3	8	0	4	4	93	151	232	7-10_13:17:58.0	277.8
2	4	3	5	3	3	6	3	93	147	318	7-10_13:17:59.0	277.8
6	3	5	5	4	6	4	2	93	148	318	7-10_13:18:0.0	277.7
4	4	7	4	7	6	1	4	93	148	47	7-10_13:18:1.0	277.8
5	2	3	3	4	5	3	2	93	145	44	7-10_13:18:2.0	277.9
4	2	2	7	4	5	7	0	93	148	273	7-10_13:18:3.0	277.9
4	6	5	1	6	3	2	2	93	120	290	7-10_13:18:4.0	277.9
5	2	2	9	2	7	6	1	93	147	272	7-10_13:18:5.0	278
3	1	4	5	2	5	3	4	93	147	317	7-10_13:18:6.0	278.1
4	6	4	4	6	3	5	1	94	144	359	7-10_13:18:7.0	278
3	2	3	4	3	4	7	3	93	149	274	7-10_13:18:8.0	277.8
3	6	7	3	8	4	3	1	93	150	230	7-10_13:18:9.0	277.6
5	5	3	4	7	4	5	1	92	108	278	7-10_13:18:10.0	277.5
8	3	6	3	6	2	1	3	93	151	276	7-10_13:18:11.0	277.3
6	2	2	6	3	7	4	2	92	153	189	7-10_13:18:12.0	277.2
7	4	2	7	3	9	3	1	93	149	319	7-10_13:18:13.0	277.1
0	5	3	6	5	3	10	0	93	146	315	7-10_13:18:14.0	277
4	2	3	6	3	6	4	2	93	152	278	7-10_13:18:15.0	276.9
3	3	5	6	6	6	2	2	93	150	320	7-10_13:18:16.0	276.8
2	9	10	0	12	0	2	1	93	148	274	7-10_13:18:17.0	276.7
6	4	3	4	4	4	5	3	93	150	275	7-10_13:18:18.0	276.7
6	0	2	8	2	10	2	2	93	150	275	7-10_13:18:19.0	276.7
7	3	4	3	5	2	3	3	93	149	275	7-10_13:18:20.0	276.8
2	2	3	7	4	5	6	1	93	147	2	7-10_13:18:21.0	276.8
5	5	2	3	4	5	6	3	93	149	275	7-10_13:18:22.0	276.8
3	8	7	2	7	2	9	0	93	152	233	7-10_13:18:23.0	276.7
6	1	2	9	2	10	1	2	93	148	319	7-10_13:18:24.0	276.6
7	2	4	2	6	2	3	3	93	145	315	7-10_13:18:25.0	276.2
5	6	2	2	3	2	7	1	92	152	232	7-10_13:18:26.0	275.9
2	7	5	2	5	3	9	1	93	150	230	7-10_13:18:27.0	275.7
6	2	5	3	6	4	4	1	93	141	355	7-10_13:18:28.0	275.6
3	5	3	6	3	3	5	5	93	149	320	7-10_13:18:29.0	275.4
7	1	4	3	6	5	2	1	93	145	43	7-10_13:18:30.0	275.2
2	6	4	4	5	4	8	2	93	147	2	7-10_13:18:31.0	275
6	4	4	2	4	1	5	0	93	148	274	7-10_13:18:32.0	274.8
1	1	2	10	3	10	0	5	94	146	26	7-10_13:18:33.0	274.9
2	5	5	6	4	7	6	1	93	147	316	7-10_13:18:34.0	274.9
4	8	8	1	6	1	11	1	93	150	320	7-10_13:18:35.0	274.8
5	6	4	3	6	4	3	1	94	153	235	7-10_13:18:36.0	274.7
7	3	5	4	8	4	6	1	93	150	275	7-10_13:18:37.0	274.5
3	7	4	4	4	5	6	2	93	153	234	7-10_13:18:38.0	274.4
4	3	7	5	8	5	6	2	93	142	73	7-10_13:18:39.0	274.3
1	6	8	5	3	4	6	3	93	148	3	7-10_13:18:40.0	274
1	5	4	5	5	6	3	3	92	155	235	7-10_13:18:41.0	273.9
5	2	7	3	6	4	7	2	93	149	275	7-10_13:18:42.0	273.8
5	5	4	2	6	6	3	3	93	148	2	7-10_13:18:43.0	273.9
1	4	3	7	3	6	5	3	93	149	275	7-10_13:18:44.0	273.7
9	0	8	4	10	3	7	2	93	151	232	7-10_13:18:45.0	273.6
6	5	8	1	8	5	9	2	93	150	230	7-10_13:18:46.0	273.6
3	4	4	4	3	8	3	4	93	150	320	7-10_13:18:47.0	273.6
8	4	7	3	7	3	7	1	93	148	273	7-10_13:18:48.0	273.4
3	6	5	4	5	6	5	3	93	149	3	7-10_13:18:49.0	273.4
6	2	6	6	7	3	7	2	93	146	45	7-10_13:18:50.0	273.4
4	6	5	3	4	5	5	1	93	148	227	7-10_13:18:51.0	273.5
3	4	3	6	2	4	3	2	93	142	86	7-10_13:18:52.0	273.7
1	5	3	6	3	6	2	4	92	147	317	7-10_13:18:53.0	273.8
4	7	5	3	4	8	6	3	93	146	271	7-10_13:18:54.0	273.8
1	6	1	5	2	7	1	4	93	149	274	7-10_13:18:55.0	273.8
3	4	4	5	5	5	3	1	93	150	320	7-10_13:18:56.0	273.8
7	3	6	2	10	2	8	1	92	133	259	7-10_13:18:57.0	273.9
2	7	3	4	2	7	3	4	93	151	290	7-10_13:18:58.0	273.9
0	2	1	11	1	3	2	1	92	143	86	7-10_13:18:59.0	274.1
4	3	4	4	4	3	3	1	92	147	228	7-10_13:19:0.0	273.9
3	4	3	7	2	2	2	2	93	148	318	7-10_13:19:1.0	273.7
1	2	0	7	4	2	2	0	93	142	41	7-10_13:19:2.0	273.4
4	5	5	5	4	5	2	3	93	150	231	7-10_13:19:3.0	273.2
1	3	1	6	3	5	2	3	93	149	230	7-10_13:19:4.0	273
5	4	7	5	1	4	2	2	92	133	32	7-10_13:19:5.0	273
3	5	5	3	4	5	4	2	93	144	42	7-10_13:19:6.0	272.8
7	2	8	1	4	2	3	2	93	148	273	7-10_13:19:7.0	272.8
5	6	6	5	1	6	0	4	93	145	44	7-10_13:19:8.0	272.7
4	4	4	9	2	4	1	2	93	150	320	7-10_13:19:9.0	272.7
7	5	2	4	8	4	6	3	92	150	320	7-10_13:19:10.0	272.7
6	4	6	5	6	6	6	1	93	152	233	7-10_13:19:11.0	272.7
2	6	0	1	3	3	0	0	93	152	232	7-10_13:19:12.0	272.7
5	5	3	3	3	2	6	0	93	145	0	7-10_13:19:13.0	272.8
3	3	5	2	5	5	3	2	93	144	42	7-10_13:19:14.0	272.8
2	5	1	8	6	1	5	1	93	149	274	7-10_13:19:15.0	272.9
2	5	5	4	6	5	7	1	93	145	0	7-10_13:19:16.0	272.9
5	8	2	4	8	4	6	3	93	148	318	7-10_13:19:17.0	272.8
7	6	6	5	1	0	6	0	91	112	100	7-10_13:19:18.0	272.6
5	2	5	2	9	3	8	2	93	145	315	7-10_13:19:19.0	272.6
4	1	5	3	8	3	6	2	93	152	278	7-10_13:19:20.0	272.5
6	3	4	5	8	1	7	0	92	107	322	7-10_13:19:21.0	272.6
3	2	3	5	6	0	6	1	93	144	42	7-10_13:19:22.0	272.6
4	2	4	7	1	5	2	2	93	144	42	7-10_13:19:23.0	272.8
8	3	8	3	4	5	5	2	93	148	338	7-10_13:19:24.0	272.9
9	2	7	4	2	6	1	5	93	152	323	7-10_13:19:25.0	273
7	3	7	4	3	6	2	4	92	127	342	7-10_13:19:26.0	273.2
5	1	5	2	5	5	5	2	93	145	43	7-10_13:19:27.0	273.3
2	6	2	11	2	1	3	1	93	147	1	7-10_13:19:28.0	273.1
5	4	6	4	3	8	2	5	93	146	0	7-10_13:19:29.0	273
2	5	2	7	4	4	5	1	93	147	1	7-10_13:19:30.0	272.8
3	2	5	3	5	5	5	4	93	153	235	7-10_13:19:31.0	272.7
6	7	5	7	2	9	2	1	93	150	321	7-10_13:19:32.0	272.6
1	4	2	6	7	1	5	1	93	145	44	7-10_13:19:33.0	272.6
4	1	7	1	9	1	5	4	92	152	277	7-10_13:19:34.0	272.6
2	7	2	8	4	4	2	1	93	150	321	7-10_13:19:35.0	272.5
7	3	9	3	5	6	3	4	93	151	321	7-10_13:19:36.0	272.7
5	3	5	3	4	5	4	2	93	145	314	7-10_13:19:37.0	272.8
4	7	3	6	4	3	4	1	92	147	227	7-10_13:19:38.0	273
4	2	4	3	6	3	5	2	93	154	234	7-10_13:19:39.0	272.8
2	3	1	7	4	2	4	1	93	141	84	7-10_13:19:40.0	272.7
3	3	3	3	7	4	6	3	93	148	273	7-10_13:19:41.0	272.8
8	5	4	5	5	5	5	0	93	146	26	7-10_13:19:42.0	272.8
4	3	4	6	4	4	7	1	93	156	192	7-10_13:19:43.0	272.8
4	2	6	5	2	4	4	3	93	144	314	7-10_13:19:44.0	272.9
2	3	3	2	10	3	6	4	92	141	85	7-10_13:19:45.0	273.1
5	3	6	3	5	7	3	2	93	147	317	7-10_13:19:46.0	273
5	1	6	0	7	8	6	1	92	105	321	7-10_13:19:47.0	273
4	4	7	4	4	7	6	2	93	152	232	7-10_13:19:48.0	273.1
3	9	1	9	5	1	5	2	93	144	358	7-10_13:19:49.0	273
1	1	2	0	11	1	8	4	93	148	318	7-10_13:19:50.0	273
7	5	3	7	4	2	2	2	93	151	277	7-10_13:19:51.0	272.8
7	3	5	6	3	3	3	1	92	101	316	7-10_13:19:52.0	272.8
6	2	11	2	0	8	2	1	93	149	320	7-10_13:19:53.0	272.6
3	4	3	5	8	2	9	2	93	148	319	7-10_13:19:54.0	272.6
2	1	2	2	7	4	5	2	93	153	190	7-10_13:19:55.0	272.6
6	3	4	5	2	7	2	3	93	138	81	7-10_13:19:56.0	272.4
2	5	2	4	7	2	7	2	93	145	44	7-10_13:19:57.0	272.3
4	4	5	3	7	4	5	2	93	146	316	7-10_13:19:58.0	272.2
0	2	0	2	9	3	4	5	93	145	43	7-10_13:19:59.0	272.3
4	8	0	8	6	1	10	2	93	146	334	7-10_13:20:0.0	272.2
8	8	1	11	1	3	9	0	93	153	279	7-10_13:20:1.0	272.5
8	5	5	7	3	3	5	3	93	154	280	7-10_13:20:2.0	272.3
3	3	4	3	5	7	6	2	93	151	276	7-10_13:20:3.0	273
2	6	1	3	7	3	7	3	93	146	271	7-10_13:20:4.0	273.4
1	2	3	0	11	4	4	5	93	145	334	7-10_13:20:5.0	273.5
3	2	1	3	8	4	2	5	93	147	1	7-10_13:20:6.0	273.4
2	1	5	2	6	6	1	4	93	149	184	7-10_13:20:7.0	273.4
5	6	5	5	4	6	5	2	94	144	333	7-10_13:20:8.0	273.4
6	5	6	6	1	5	7	0	93	152	232	7-10_13:20:9.0	273.5
3	5	0	4	10	2	4	5	92	148	228	7-10_13:20:10.0	273.8
3	4	6	4	5	0	4	2	93	149	229	7-10_13:20:11.0	273.8
2	3	4	4	3	9	3	1	93	149	4	7-10_13:20:12.0	273.9
4	1	6	4	1	5	3	0	93	152	239	7-10_13:20:13.0	273.9
6	3	10	6	0	2	6	0	93	146	0	7-10_13:20:14.0	274.2
5	10	2	5	10	0	5	7	93	150	288	7-10_13:20:15.0	274.5
5	4	8	4	4	4	7	3	93	154	190	7-10_13:20:16.0	274.2
9	7	1	9	6	1	7	5	93	149	275	7-10_13:20:17.0	274.3
8	3	6	5	3	1	10	1	93	151	290	7-10_13:20:18.0	274.3
5	4	6	6	4	5	4	3	93	147	273	7-10_13:20:19.0	274.6
3	4	9	3	4	3	3	2	92	150	288	7-10_13:20:20.0	274.8
6	3	3	6	3	3	6	1	93	151	277	7-10_13:20:21.0	274.9
1	2	5	1	4	7	2	1	93	154	190	7-10_13:20:22.0	275.4
5	4	3	7	8	2	7	4	93	148	337	7-10_13:20:23.0	275.4
2	2	6	4	3	5	5	1	93	145	45	7-10_13:20:24.0	275.4
4	4	5	3	8	3	3	3	92	145	334	7-10_13:20:25.0	275.8
2	2	6	3	3	7	4	1	93	148	318	7-10_13:20:26.0	275.8
1	1	7	2	3	6	1	1	93	148	318	7-10_13:20:27.0	275.3
1	2	6	0	3	7	1	0	93	147	285	7-10_13:20:28.0	275.2
4	4	3	5	6	1	3	3	92	142	85	7-10_13:20:29.0	275
2	4	6	4	4	4	3	2	93	143	357	7-10_13:20:30.0	274.7
6	6	4	6	6	4	6	2	93	146	0	7-10_13:20:31.0	274.8
8	7	0	6	8	8	2	4	93	151	322	7-10_13:20:32.0	274.7
4	5	0	3	5	10	1	2	93	144	314	7-10_13:20:33.0	274.7
6	5	2	5	6	6	3	4	93	146	1	7-10_13:20:34.0	275.2
0	1	9	1	1	4	7	0	93	153	234	7-10_13:20:35.0	275.6
8	10	2	4	11	3	1	2	93	152	239	7-10_13:20:36.0	275.6
7	5	1	7	5	7	4	3	93	149	319	7-10_13:20:37.0	275.8
1	0	6	3	1	8	2	1	93	150	288	7-10_13:20:38.0	276
3	2	3	2	3	10	2	1	93	152	232	7-10_13:20:39.0	276.3
2	3	7	3	4	5	6	1	93	148	184	7-10_13:20:40.0	276.7
4	3	5	3	3	4	5	1	93	144	333	7-10_13:20:41.0	276.7
3	6	3	3	6	7	3	2	92	140	355	7-10_13:20:42.0	277.2
1	2	6	3	4	4	6	2	93	150	288	7-10_13:20:43.0	277.1
6	5	0	5	7	4	1	3	93	143	358	7-10_13:20:44.0	276.7
6	4	4	5	5	2	5	4	92	123	22	7-10_13:20:45.0	276.7
5	2	7	6	6	2	5	3	93	148	337	7-10_13:20:46.0	276.7
6	4	2	4	6	7	1	1	93	151	322	7-10_13:20:47.0	276.1
2	2	10	4	1	2	12	1	93	101	341	7-10_13:20:48.0	276.1
1	0	7	9	0	1	6	6	93	148	2	7-10_13:20:49.0	276.1
5	3	2	8	5	6	3	3	92	134	348	7-10_13:20:50.0	276.1
6	5	3	2	7	3	6	0	93	147	27	7-10_13:20:51.0	276.1
2	1	9	4	2	1	10	5	93	145	359	7-10_13:20:52.0	276
3	1	6	6	4	1	7	3	92	146	26	7-10_13:20:53.0	276.9
3	3	4	6	5	6	5	4	93	146	0	7-10_13:20:54.0	277.2
5	5	5	3	4	6	7	2	93	144	88	7-10_13:20:55.0	277.6
10	6	0	9	11	4	0	4	93	147	336	7-10_13:20:56.0	277.6
2	3	5	2	3	6	5	3	93	148	228	7-10_13:20:57.0	278.4
4	4	4	9	8	1	4	5	93	149	339	7-10_13:20:58.0	278.8
3	2	4	11	8	1	2	4	93	148	318	7-10_13:20:59.0	278.9
4	3	5	0	4	7	6	2	93	149	273	7-10_13:21:0.0	279.1
5	5	4	4	3	6	4	3	93	146	335	7-10_13:21:1.0	279.1
5	6	3	6	7	7	1	3	93	152	322	7-10_13:21:2.0	278.9
7	4	3	7	10	6	2	0	93	149	287	7-10_13:21:3.0	278.8
8	6	3	3	8	6	5	2	93	149	319	7-10_13:21:4.0	278.7
0	0	3	5	4	0	8	3	93	141	355	7-10_13:21:5.0	278.5
2	1	7	7	4	1	6	5	93	142	356	7-10_13:21:6.0	278.1
1	1	6	1	0	4	7	4	93	146	316	7-10_13:21:7.0	278
8	8	3	2	3	9	4	1	93	148	286	7-10_13:21:8.0	278
7	4	2	3	8	7	4	1	93	151	277	7-10_13:21:9.0	277.5
4	4	8	2	2	5	8	4	93	148	337	7-10_13:21:10.0	277.5
5	4	5	7	6	3	1	2	92	109	279	7-10_13:21:11.0	277.3
5	3	4	6	5	2	3	2	92	151	276	7-10_13:21:12.0	277.2
2	2	8	6	2	2	5	5	93	148	273	7-10_13:21:13.0	277.2
3	4	5	2	1	7	6	2	92	142	357	7-10_13:21:14.0	277.3
5	5	1	5	6	6	2	1	93	149	274	7-10_13:21:15.0	277.4
2	1	4	8	12	4	2	2	93	147	317	7-10_13:21:16.0	277.4
3	2	4	7	12	6	2	1	93	147	285	7-10_13:21:17.0	277.5
4	3	5	5	8	6	3	0	93	154	235	7-10_13:21:18.0	277.4
5	4	4	1	6	7	6	2	92	135	305	7-10_13:21:19.0	277.4
6	4	5	4	7	7	3	2	92	146	335	7-10_13:21:20.0	277.4
5	4	5	2	3	6	7	4	92	146	316	7-10_13:21:21.0	277.3
4	4	5	7	6	4	2	1	93	153	278	7-10_13:21:22.0	277.1
3	3	3	3	4	3	7	2	92	145	315	7-10_13:21:23.0	276.9
0	0	4	2	5	3	8	6	93	148	235	7-10_13:21:24.0	276.7
2	1	9	7	9	3	1	2	93	150	276	7-10_13:21:25.0	276.6
6	7	0	3	3	4	7	0	93	150	320	7-10_13:21:26.0	276.4
3	2	6	6	2	3	4	2	93	146	284	7-10_13:21:27.0	276.4
3	3	2	8	8	1	3	1	93	150	231	7-10_13:21:28.0	276.3
2	2	10	4	0	2	3	5	93	146	77	7-10_13:21:29.0	275.7
5	5	7	5	2	4	2	1	93	145	0	7-10_13:21:30.0	275.8
5	5	4	2	3	5	4	4	93	148	318	7-10_13:21:31.0	275.8
6	6	2	2	5	6	5	2	93	152	277	7-10_13:21:32.0	275.8
7	4	4	2	5	6	7	4	93	147	317	7-10_13:21:33.0	276.1
5	4	5	2	6	8	2	1	93	148	337	7-10_13:21:34.0	276.1
2	2	6	5	4	3	6	3	93	142	267	7-10_13:21:35.0	276.1
6	4	0	2	8	10	2	1	93	149	287	7-10_13:21:36.0	276.3
6	5	2	1	1	4	9	4	93	147	1	7-10_13:21:37.0	276.4
6	6	3	4	5	6	4	2	94	154	190	7-10_13:21:38.0	276.4
4	3	5	6	5	6	5	3	92	148	319	7-10_13:21:39.0	276.1
3	2	4	5	9	7	2	2	92	152	277	7-10_13:21:40.0	275.9
3	3	3	5	7	5	5	3	93	151	238	7-10_13:21:41.0	275.9
1	1	6	10	10	6	2	1	92	148	273	7-10_13:21:42.0	275.6
2	2	2	5	10	11	1	1	92	114	303	7-10_13:21:43.0	275.3
2	4	2	2	4	5	6	4	93	148	318	7-10_13:21:44.0	275.2
7	6	4	2	1	1	10	4	93	146	316	7-10_13:21:45.0	275.1
5	5	2	4	6	6	7	3	93	141	355	7-10_13:21:46.0	274.9
2	2	6	7	10	9	0	0	93	148	318	7-10_13:21:47.0	274.8
2	3	4	4	6	7	3	1	93	146	335	7-10_13:21:48.0	274.8
6	5	6	7	7	3	6	4	93	147	272	7-10_13:21:49.0	274.5
6	5	4	4	4	4	6	4	93	150	288	7-10_13:21:50.0	274.1
2	3	4	4	4	7	4	1	93	148	273	7-10_13:21:51.0	274.1
11	9	2	2	3	2	9	6	93	148	286	7-10_13:21:52.0	274
6	6	5	4	4	2	6	5	93	152	278	7-10_13:21:53.0	274
4	5	2	2	2	4	6	1	93	150	275	7-10_13:21:54.0	273.9
5	4	7	4	1	0	5	3	93	148	3	7-10_13:21:55.0	273.9
5	3	4	4	4	2	3	2	93	105	4	7-10_13:21:56.0	273.7
3	1	7	6	4	4	0	0	93	153	234	7-10_13:21:57.0	273.6
3	5	3	4	6	5	3	1	93	148	273	7-10_13:21:58.0	273.3
6	6	5	5	4	4	6	2	93	151	289	7-10_13:21:59.0	273.3
4	5	4	3	4	3	3	1	92	152	188	7-10_13:22:0.0	274.5
6	3	5	7	7	6	6	2	92	147	26	7-10_13:22:1.0	274.3
4	6	3	4	5	4	4	1	93	156	238	7-10_13:22:2.0	274.6
3	3	1	1	2	2	0	1	93	150	320	7-10_13:22:3.0	274.2
5	3	6	5	7	5	5	1	92	142	313	7-10_13:22:4.0	273.8
4	1	6	5	6	4	6	1	93	143	358	7-10_13:22:5.0	273.5
7	2	4	5	6	5	4	2	93	143	41	7-10_13:22:6.0	272.9
6	0	9	9	8	6	8	1	92	139	82	7-10_13:22:7.0	273.3
4	0	8	6	3	1	7	0	93	148	28	7-10_13:22:8.0	273.3
4	1	5	5	4	3	6	0	93	149	319	7-10_13:22:9.0	272.5
3	6	3	2	5	6	3	3	92	150	237	7-10_13:22:10.0	272.6
3	2	4	3	2	1	3	0	93	147	226	7-10_13:22:11.0	272.1
2	4	3	3	3	4	1	2	93	143	23	7-10_13:22:12.0	270.5
3	4	2	1	2	5	2	2	93	149	4	7-10_13:22:13.0	269.3
8	2	10	6	4	1	5	1	93	144	358	7-10_13:22:14.0	268.5
7	2	6	5	3	3	3	1	93	153	279	7-10_13:22:15.0	269.3
5	8	4	5	9	9	8	1	93	146	271	7-10_13:22:16.0	269.4
4	9	5	8	11	6	6	1	94	147	336	7-10_13:22:17.0	269.4
7	2	8	5	2	3	1	2	93	147	1	7-10_13:22:18.0	269.7
6	3	6	7	4	5	3	1	93	149	274	7-10_13:22:19.0	269.9
5	5	7	6	6	4	6	1	92	129	27	7-10_13:22:20.0	270.2
1	5	1	5	7	8	7	3	93	145	24	7-10_13:22:21.0	270.3
2	3	4	5	7	6	7	1	93	150	275	7-10_13:22:22.0	270.9
5	4	6	7	5	3	3	0	93	150	288	7-10_13:22:23.0	271.5
2	5	2	5	4	6	4	2	93	145	0	7-10_13:22:24.0	272
1	3	0	2	8	7	7	1	93	91	306	7-10_13:22:25.0	271.7
3	7	5	7	6	2	3	1	93	151	277	7-10_13:22:26.0	272.1
4	4	4	3	4	7	7	0	93	148	318	7-10_13:22:27.0	272.1
3	1	2	3	5	7	7	2	93	146	232	7-10_13:22:28.0	272.1
9	1	4	1	2	5	6	1	93	146	0	7-10_13:22:29.0	271.9
6	4	5	4	2	8	7	1	93	147	285	7-10_13:22:30.0	272.2
5	5	3	6	4	5	4	2	93	148	2	7-10_13:22:31.0	272.2
4	6	6	6	5	4	2	1	93	153	189	7-10_13:22:32.0	272.9
5	0	0	6	8	1	2	1	93	151	276	7-10_13:22:33.0	273.5
5	2	2	2	6	5	1	1	93	149	338	7-10_13:22:34.0	273.6
3	5	4	6	4	6	7	1	93	148	318	7-10_13:22:35.0	274.3
6	1	4	4	6	2	6	0	93	148	3	7-10_13:22:36.0	275.2
1	7	7	7	3	5	5	1	93	149	3	7-10_13:22:37.0	275.7
2	5	7	4	6	5	7	1	93	149	275	7-10_13:22:38.0	276.4
3	5	3	6	6	2	3	1	93	155	190	7-10_13:22:39.0	276.5
3	2	2	2	3	3	2	1	93	153	233	7-10_13:22:40.0	276.6
3	2	1	2	2	3	4	0	93	149	320	7-10_13:22:41.0	276.6
6	7	1	3	3	4	3	0	93	152	278	7-10_13:22:42.0	276.8
5	5	4	4	5	6	4	3	93	148	273	7-10_13:22:43.0	276.7
5	2	8	7	7	7	5	3	93	148	273	7-10_13:22:44.0	276.8
8	3	8	8	9	7	6	3	92	150	320	7-10_13:22:45.0	277.1
8	5	5	6	7	6	4	2	93	147	1	7-10_13:22:46.0	277.7
6	1	8	8	8	9	5	3	93	144	358	7-10_13:22:47.0	277.7
6	5	6	5	6	6	2	2	93	146	0	7-10_13:22:48.0	278.7
6	3	6	6	9	8	5	3	93	110	236	7-10_13:22:49.0	279
4	6	1	1	3	4	0	0	93	146	0	7-10_13:22:50.0	279
4	4	6	5	7	7	6	3	93	147	242	7-10_13:22:51.0	280
5	6	2	2	4	5	1	1	92	108	323	7-10_13:22:52.0	281.3
2	2	3	3	3	2	2	1	93	150	237	7-10_13:22:53.0	281
10	4	9	8	12	10	7	4	92	133	303	7-10_13:22:54.0	281.6
6	7	3	4	5	6	3	2	93	152	233	7-10_13:22:55.0	281.5
3	5	5	4	3	3	5	1	93	149	319	7-10_13:22:56.0	281.7
5	1	10	9	6	4	9	3	93	139	309	7-10_13:22:57.0	281
1	4	2	2	2	3	3	1	93	145	0	7-10_13:22:58.0	280.1
4	2	4	3	4	3	3	1	93	148	227	7-10_13:22:59.0	280.5
4	3	7	5	3	2	5	1	93	146	0	7-10_13:23:0.0	281.2
9	4	8	8	7	4	9	1	93	152	322	7-10_13:23:1.0	282.7
3	0	4	1	0	0	1	2	93	151	187	7-10_13:23:2.0	282.4
5	5	4	7	10	6	7	2	92	154	190	7-10_13:23:3.0	282.4
2	3	3	2	4	5	3	2	93	150	275	7-10_13:23:4.0	282
5	3	5	5	5	3	5	1	93	148	3	7-10_13:23:5.0	282.7
0	9	0	4	10	12	11	2	93	149	319	7-10_13:23:6.0	283.4
4	1	3	1	3	7	5	1	93	145	0	7-10_13:23:7.0	283
3	5	4	5	4	1	2	2	93	146	316	7-10_13:23:8.0	282.9
4	4	5	3	4	7	6	2	93	148	318	7-10_13:23:9.0	282.8
7	7	5	6	9	8	8	3	93	135	305	7-10_13:23:10.0	283.3
3	5	1	3	5	6	2	2	93	155	237	7-10_13:23:11.0	283.6
3	1	4	3	3	1	4	0	93	147	0	7-10_13:23:12.0	284.1
1	1	4	3	0	0	2	0	93	147	272	7-10_13:23:13.0	282.9
7	2	4	5	7	5	6	2	93	152	232	7-10_13:23:14.0	282.5
1	1	2	2	2	2	3	1	93	147	45	7-10_13:23:15.0	283.4
2	5	1	1	2	2	1	1	93	147	1	7-10_13:23:16.0	281.7
8	5	7	8	9	7	8	3	93	149	229	7-10_13:23:17.0	282
2	4	5	4	3	4	2	2	93	107	322	7-10_13:23:18.0	281.5
3	7	1	3	6	6	4	3	93	151	277	7-10_13:23:19.0	282.5
2	5	3	1	2	5	2	3	93	148	2	7-10_13:23:20.0	281.9
5	4	6	5	2	2	2	1	92	146	316	7-10_13:23:21.0	280.4
8	5	11	7	8	0	5	1	93	36	57	7-10_13:23:22.0	281.9
71	11	49	74	24	36	54	30	39	276	313	7-10_13:23:23.0	281.4
99	9	57	105	31	53	100	44	359	276	324	7-10_13:23:24.0	279.9
102	11	59	89	26	59	99	34	359	275	322	7-10_13:23:25.0	277.2
93	17	59	103	25	53	103	46	322	267	335	7-10_13:23:26.0	275.3
50	8	20	37	9	12	19	17	33	331	318	7-10_13:23:27.0	274.8
58	5	13	25	6	5	3	9	44	351	4	7-10_13:23:28.0	275.1
18	2	12	10	2	5	5	2	51	351	7	7-10_13:23:29.0	275
38	1	8	6	3	6	5	4	49	353	286	7-10_13:23:30.0	275
39	8	17	23	0	11	9	16	33	10	294	7-10_13:23:31.0	275
61	2	11	38	7	13	15	27	20	16	290	7-10_13:23:32.0	275.2
76	5	13	29	6	9	3	21	15	359	275	7-10_13:23:33.0	275.2
56	7	11	33	5	6	11	32	21	0	274	7-10_13:23:34.0	275.6
97	5	16	32	6	13	17	23	11	351	251	7-10_13:23:35.0	275.5
72	6	15	22	2	10	15	27	19	337	264	7-10_13:23:36.0	274.7
40	2	5	20	4	3	5	23	38	343	270	7-10_13:23:37.0	274.4
35	4	10	23	8	6	8	13	58	8	334	7-10_13:23:38.0	274.2
37	1	9	23	8	7	5	17	59	3	341	7-10_13:23:39.0	273.8
36	3	15	20	8	8	3	18	39	349	342	7-10_13:23:40.0	273.4
26	1	6	14	6	3	5	8	51	340	359	7-10_13:23:41.0	272.7
40	7	22	45	11	11	8	31	53	0	252	7-10_13:23:42.0	273.7
159	17	78	117	19	36	24	89	55	357	40	7-10_13:23:43.0	278.1
97	8	19	37	11	3	6	31	58	344	323	7-10_13:23:44.0	281.6
71	6	24	36	13	4	7	32	59	0	339	7-10_13:23:45.0	289.9
95	8	23	48	7	12	9	38	59	351	310	7-10_13:23:46.0	299
106	8	27	56	9	13	16	47	55	346	305	7-10_13:23:47.0	309.6
93	6	21	47	6	11	8	34	60	359	339	7-10_13:23:48.0	315.6
155	21	69	88	14	29	22	56	62	346	247	7-10_13:23:49.0	321.6
136	11	52	96	23	40	30	51	63	347	241	7-10_13:23:50.0	330.4
96	9	25	58	14	18	14	26	60	352	296	7-10_13:23:51.0	340
98	10	25	45	2	9	11	39	61	358	315	7-10_13:23:52.0	347.4
109	13	29	62	8	13	11	42	63	346	270	7-10_13:23:53.0	356.2
107	6	23	46	10	13	15	36	59	358	319	7-10_13:23:54.0	363.1
93	8	24	42	5	9	14	36	56	351	328	7-10_13:23:55.0	370.6
94	3	21	39	2	12	12	35	59	351	346	7-10_13:23:56.0	379.9
112	5	27	44	6	14	14	41	59	356	4	7-10_13:23:57.0	390
105	7	27	61	11	9	6	52	58	349	2	7-10_13:23:58.0	394.9
307	15	155	319	61	95	77	367	58	353	250	7-10_13:23:59.0	399.4
104	14	29	54	11	11	10	38	64	351	287	7-10_13:24:0.0	407.9
110	5	20	63	17	7	5	44	63	344	272	7-10_13:24:1.0	416.7
132	8	21	57	9	12	17	44	62	347	293	7-10_13:24:2.0	424.5
113	6	19	46	8	12	14	34	62	352	320	7-10_13:24:3.0	431.9
100	13	32	56	3	20	23	38	62	344	313	7-10_13:24:4.0	438.4
110	1	12	30	10	10	5	24	59	0	2	7-10_13:24:5.0	443.6
184	11	76	112	16	28	24	113	64	344	41	7-10_13:24:6.0	446
126	16	44	67	7	23	24	47	54	4	255	7-10_13:24:7.0	451.2
176	10	63	109	23	32	25	102	59	350	78	7-10_13:24:8.0	456
105	8	26	46	3	10	18	38	57	349	330	7-10_13:24:9.0	462.1
104	7	30	64	12	13	13	45	61	350	347	7-10_13:24:10.0	466.8
115	3	17	34	11	6	2	34	60	358	26	7-10_13:24:11.0	469.7
164	10	62	121	24	24	20	108	62	346	44	7-10_13:24:12.0	473
166	7	57	96	20	40	33	80	58	0	151	7-10_13:24:13.0	477.3
118	9	42	83	6	23	26	65	60	353	25	7-10_13:24:14.0	481.7
116	5	22	45	10	12	12	41	63	339	314	7-10_13:24:15.0	485.5
110	10	35	67	8	23	25	51	60	355	328	7-10_13:24:16.0	488.4
114	5	23	61	7	13	19	52	56	345	342	7-10_13:24:17.0	491.8
188	7	83	121	27	39	27	115	54	341	20	7-10_13:24:18.0	494.5
108	9	28	47	3	25	16	32	52	357	333	7-10_13:24:19.0	499.6
134	17	66	127	14	39	30	115	47	0	28	7-10_13:24:20.0	504.1
153	10	55	88	12	17	19	79	48	350	22	7-10_13:24:21.0	509.4
132	12	36	63	8	24	23	50	53	357	313	7-10_13:24:22.0	515.1
112	8	23	43	4	17	13	29	52	341	37	7-10_13:24:23.0	520.1
159	8	24	56	18	12	14	56	50	359	299	7-10_13:24:24.0	525.4
102	7	27	47	5	14	10	37	52	325	347	7-10_13:24:25.0	530.5
145	5	25	56	20	13	14	53	48	358	271	7-10_13:24:26.0	535.9
122	7	35	75	14	13	20	66	54	340	356	7-10_13:24:27.0	539.8
233	9	105	149	31	46	38	147	50	4	10	7-10_13:24:28.0	543.6
128	4	21	60	4	20	31	38	58	336	314	7-10_13:24:29.0	549.9
158	14	35	64	18	25	26	59	60	357	299	7-10_13:24:30.0	554.5
163	10	29	64	8	19	20	56	56	1	288	7-10_13:24:31.0	560
112	5	26	56	5	18	13	41	59	338	8	7-10_13:24:32.0	564.3
130	5	18	64	16	10	22	52	59	2	299	7-10_13:24:33.0	569.4
221	13	96	155	33	45	41	164	59	347	343	7-10_13:24:34.0	575.4
195	6	77	131	27	36	34	116	56	345	358	7-10_13:24:35.0	582.7
113	6	14	44	2	9	17	34	57	1	321	7-10_13:24:36.0	588.7
147	3	26	49	18	17	12	47	64	343	245	7-10_13:24:37.0	595.2
134	5	18	47	11	10	14	49	60	352	298	7-10_13:24:38.0	599.8
161	3	16	59	20	8	14	55	60	349	296	7-10_13:24:39.0	604.7
111	12	36	48	3	27	16	36	63	352	334	7-10_13:24:40.0	609.6
123	8	28	40	13	14	9	46	60	352	338	7-10_13:24:41.0	616.3
156	12	48	107	8	30	45	99	61	345	343	7-10_13:24:42.0	622.5
127	2	15	47	11	8	15	42	58	356	346	7-10_13:24:43.0	628.5
118	5	20	38	14	6	12	46	58	359	292	7-10_13:24:44.0	634.2
124	6	32	69	12	18	19	54	60	350	28	7-10_13:24:45.0	640
125	4	22	50	13	11	19	47	59	359	271	7-10_13:24:46.0	646.6
129	10	39	71	10	26	22	58	60	346	209	7-10_13:24:47.0	653
129	10	24	41	9	11	14	48	57	354	308	7-10_13:24:48.0	658.4
137	1	9	44	10	10	22	42	60	359	324	7-10_13:24:49.0	665.2
135	4	16	48	3	16	21	36	61	349	288	7-10_13:24:50.0	671.9
141	10	21	39	11	10	15	48	60	353	299	7-10_13:24:51.0	678.2
161	4	23	67	9	21	37	47	62	348	288	7-10_13:24:52.0	684.4
129	6	18	47	6	12	18	41	61	352	328	7-10_13:24:53.0	690.5
138	6	21	49	12	13	15	52	62	349	325	7-10_13:24:54.0	696.7
168	11	57	97	12	29	32	80	61	353	26	7-10_13:24:55.0	703
236	9	94	141	38	47	32	131	61	351	66	7-10_13:24:56.0	710.3
224	12	86	145	34	46	29	165	57	355	49	7-10_13:24:57.0	718.4
119	4	21	41	5	17	11	38	57	358	353	7-10_13:24:58.0	726.2
157	9	29	60	13	19	28	52	59	341	292	7-10_13:24:59.0	732.8
112	8	22	46	6	12	16	41	58	356	16	7-10_13:25:0.0	739
128	7	33	63	13	16	14	63	58	353	24	7-10_13:25:1.0	743.5
160	11	58	125	23	26	24	125	61	352	28	7-10_13:25:2.0	748.5
391	35	173	332	52	86	78	350	56	0	90	7-10_13:25:3.0	754
144	2	15	54	18	12	12	68	57	353	1	7-10_13:25:4.0	759.7
153	5	22	47	13	13	17	53	61	345	292	7-10_13:25:5.0	765
144	10	28	48	4	21	26	42	56	2	326	7-10_13:25:6.0	770.7
153	3	22	62	10	13	27	55	56	352	274	7-10_13:25:7.0	777.8
150	9	36	66	17	30	34	56	53	349	207	7-10_13:25:8.0	785
176	4	19	66	17	19	35	59	50	331	246	7-10_13:25:9.0	791
131	5	23	51	14	10	19	50	49	359	4	7-10_13:25:10.0	796.3
160	11	25	43	17	10	17	59	48	352	353	7-10_13:25:11.0	802
148	9	27	46	2	20	21	47	49	356	341	7-10_13:25:12.0	807.2
184	7	60	122	20	43	42	122	49	338	15	7-10_13:25:13.0	812.8
151	1	12	43	12	7	20	51	55	357	311	7-10_13:25:14.0	819.9
122	7	22	50	5	19	15	49	51	356	13	7-10_13:25:15.0	826.8
131	4	24	51	12	12	11	55	54	3	19	7-10_13:25:16.0	834.4
188	17	37	57	14	28	31	56	57	345	287	7-10_13:25:17.0	840.9
149	11	28	43	11	14	18	57	48	358	323	7-10_13:25:18.0	846.9
282	14	135	190	46	57	51	183	59	341	338	7-10_13:25:19.0	854.5
309	25	156	247	50	69	60	262	56	338	56	7-10_13:25:20.0	862.2
154	6	21	35	19	9	16	58	55	350	303	7-10_13:25:21.0	869
121	7	17	29	6	6	6	45	54	8	4	7-10_13:25:22.0	874.5
161	3	19	44	13	10	21	51	63	346	308	7-10_13:25:23.0	881.2
228	15	93	158	33	57	44	166	55	4	28	7-10_13:25:24.0	886.6
161	11	30	61	16	20	20	73	58	347	0	7-10_13:25:25.0	892.8
151	6	18	36	9	10	17	51	61	351	335	7-10_13:25:26.0	896.5
158	15	31	46	13	18	17	59	63	346	273	7-10_13:25:27.0	900.6
161	10	25	54	9	20	27	51	63	351	220	7-10_13:25:28.0	905.7
161	2	19	70	11	25	39	52	59	359	301	7-10_13:25:29.0	911.9
135	10	33	47	14	13	11	64	62	346	16	7-10_13:25:30.0	917.6
207	11	69	130	34	38	38	117	61	357	73	7-10_13:25:31.0	923.9
181	9	56	110	25	30	28	116	60	350	26	7-10_13:25:32.0	930.5
145	4	17	56	8	17	20	53	60	352	0	7-10_13:25:33.0	937.4
155	6	33	90	13	25	38	79	59	0	17	7-10_13:25:34.0	943.5
156	4	11	46	2	16	22	46	60	349	323	7-10_13:25:35.0	949.3
179	3	20	60	11	20	40	50	61	358	327	7-10_13:25:36.0	956.1
158	9	20	52	11	17	32	49	61	345	240	7-10_13:25:37.0	961.4
156	6	15	53	12	17	35	44	60	355	0	7-10_13:25:38.0	968.2
130	10	40	61	13	21	21	63	61	352	112	7-10_13:25:39.0	976.2
133	12	42	61	12	21	16	66	61	350	24	7-10_13:25:40.0	983.1
261	13	103	167	49	55	50	137	60	0	104	7-10_13:25:41.0	989.3
147	9	25	61	17	15	28	63	60	346	6	7-10_13:25:42.0	995.6
156	13	39	72	13	27	21	81	61	352	13	7-10_13:25:43.0	1001.2
174	11	29	54	19	14	31	67	60	353	341	7-10_13:25:44.0	1007.2
149	5	12	46	6	17	20	46	61	350	293	7-10_13:25:45.0	1011.4
171	10	33	59	5	30	32	51	59	0	299	7-10_13:25:46.0	1017.2
139	6	28	62	8	21	33	49	60	349	230	7-10_13:25:47.0	1024
146	8	25	51	11	20	20	53	59	353	238	7-10_13:25:48.0	1031.2
157	7	22	60	9	25	32	52	55	0	268	7-10_13:25:49.0	1037
143	0	20	71	8	20	30	58	56	357	66	7-10_13:25:50.0	1042.3
165	5	43	97	23	28	24	97	62	349	22	7-10_13:25:51.0	1048.8
300	20	136	201	47	83	76	216	58	3	58	7-10_13:25:52.0	1056.3
154	9	26	45	10	16	17	59	59	349	353	7-10_13:25:53.0	1063.8
164	9	21	46	10	15	20	55	62	350	345	7-10_13:25:54.0	1069.1
167	8	20	50	6	18	29	50	61	345	291	7-10_13:25:55.0	1072.6
158	11	27	51	10	18	32	53	61	351	289	7-10_13:25:56.0	1076.7
159	10	27	61	10	24	35	56	62	347	228	7-10_13:25:57.0	1083.1
150	2	22	55	11	23	28	46	57	353	208	7-10_13:25:58.0	1090.8
144	7	27	67	8	27	30	53	58	357	51	7-10_13:25:59.0	1096.4
144	9	35	65	17	18	29	61	58	351	27	7-10_13:26:0.0	1102.4
236	21	95	151	29	51	47	163	61	353	45	7-10_13:26:1.0	1108.5
169	11	42	87	27	20	31	96	59	351	18	7-10_13:26:2.0	1115.8
160	1	15	57	6	22	24	51	60	350	354	7-10_13:26:3.0	1120.1
181	6	20	53	10	18	28	56	59	351	333	7-10_13:26:4.0	1126.1
173	7	25	52	10	21	28	56	60	351	298	7-10_13:26:5.0	1131.5
193	6	25	56	16	19	34	58	59	356	294	7-10_13:26:6.0	1138.4
148	7	24	54	9	21	30	47	58	353	255	7-10_13:26:7.0	1145.5
137	6	22	46	14	11	17	55	57	354	357	7-10_13:26:8.0	1152.1
140	2	14	57	8	16	31	44	58	354	42	7-10_13:26:9.0	1155
146	4	28	63	21	17	31	65	60	352	74	7-10_13:26:10.0	1157.7
245	13	96	166	41	53	49	177	62	347	51	7-10_13:26:11.0	1161.3
316	36	161	275	58	84	73	274	60	355	58	7-10_13:26:12.0	1167
162	8	22	51	10	14	22	61	60	347	350	7-10_13:26:13.0	1171.7
175	7	21	44	14	13	18	57	61	352	330	7-10_13:26:14.0	1175.9
184	12	32	45	10	25	22	59	59	354	313	7-10_13:26:15.0	1181.7
158	12	30	45	10	20	22	57	59	350	277	7-10_13:26:16.0	1186.3
183	4	19	53	8	16	35	54	58	354	304	7-10_13:26:17.0	1191.8
187	7	21	55	8	20	36	57	58	356	313	7-10_13:26:18.0	1198.5
171	12	28	59	10	28	31	55	58	353	258	7-10_13:26:19.0	1205
145	12	41	64	8	31	30	57	61	350	86	7-10_13:26:20.0	1205
201	16	68	132	22	48	50	113	62	350	59	7-10_13:26:21.0	1217.7
187	18	77	132	22	55	44	133	63	349	34	7-10_13:26:22.0	1224.2
177	5	29	89	21	28	33	84	61	351	18	7-10_13:26:23.0	1229.9
169	6	17	42	9	13	21	52	62	348	329	7-10_13:26:24.0	1234.9
191	10	27	44	18	13	30	61	61	355	325	7-10_13:26:25.0	1239.3
177	8	27	56	13	23	30	63	63	348	256	7-10_13:26:26.0	1244.9
202	0	17	72	22	21	52	65	58	0	280	7-10_13:26:27.0	1252.7
157	10	31	65	16	25	38	60	57	359	333	7-10_13:26:28.0	1261.4
153	15	34	50	8	22	18	64	60	348	356	7-10_13:26:29.0	1267.7
195	20	70	115	15	48	49	96	61	355	51	7-10_13:26:30.0	1274.8
213	9	56	117	27	40	43	115	60	348	4	7-10_13:26:31.0	1282.2
179	12	43	82	16	35	39	84	58	347	353	7-10_13:26:32.0	1289.9
216	10	75	111	23	45	54	88	56	352	324	7-10_13:26:33.0	1296.2
149	6	27	57	19	17	33	57	61	353	272	7-10_13:26:34.0	1302.7
176	7	24	58	18	20	41	61	62	353	267	7-10_13:26:35.0	1309.2
186	14	33	68	12	38	55	57	60	351	264	7-10_13:26:36.0	1317.9
179	7	24	49	14	18	30	56	61	348	315	7-10_13:26:37.0	1323.9
163	9	38	68	14	25	26	70	59	3	16	7-10_13:26:38.0	1330.1
180	13	40	78	5	41	56	61	62	339	314	7-10_13:26:39.0	1336.1
168	8	51	92	16	36	45	69	57	359	348	7-10_13:26:40.0	1342.5
222	11	77	128	31	45	52	103	60	348	341	7-10_13:26:41.0	1349.8
154	8	42	77	16	32	34	63	61	351	281	7-10_13:26:42.0	1355.3
152	10	39	72	17	28	39	58	60	353	260	7-10_13:26:43.0	1358.3
163	7	31	61	20	23	39	62	61	352	244	7-10_13:26:44.0	1364.6
174	5	15	41	6	13	26	51	56	357	324	7-10_13:26:45.0	1370.6
177	8	26	62	4	26	40	52	60	350	301	7-10_13:26:46.0	1375.9
192	3	15	53	14	18	34	55	61	352	311	7-10_13:26:47.0	1381.4
181	10	23	50	14	10	29	63	58	355	327	7-10_13:26:48.0	1386.7
180	8	31	59	18	20	35	67	60	349	330	7-10_13:26:49.0	1392.1
161	10	41	76	20	26	26	78	60	359	6	7-10_13:26:50.0	1398
302	22	111	189	51	77	79	195	61	349	333	7-10_13:26:51.0	1403.7
158	9	35	66	21	19	31	70	60	353	288	7-10_13:26:52.0	1410.2
153	11	34	54	22	18	22	63	59	353	279	7-10_13:26:53.0	1416.1
168	13	36	60	14	31	36	60	63	350	245	7-10_13:26:54.0	1420.8
177	7	23	54	2	28	28	54	57	0	311	7-10_13:26:55.0	1427.5
180	13	34	61	10	35	48	52	60	348	266	7-10_13:26:56.0	1433.2
176	11	26	46	9	21	31	54	59	353	325	7-10_13:26:57.0	1439.3
173	8	27	61	5	30	40	48	58	356	332	7-10_13:26:58.0	1446
191	12	40	81	13	39	50	76	62	348	316	7-10_13:26:59.0	1452.5
162	9	39	64	19	22	32	61	57	0	350	7-10_13:27:0.0	1459.5
378	33	167	245	56	90	92	183	63	344	270	7-10_13:27:1.0	1466.5
164	7	25	52	19	17	31	61	62	353	264	7-10_13:27:2.0	1474.2
160	7	22	64	10	23	40	51	61	351	277	7-10_13:27:3.0	1481.9
180	10	29	57	8	29	36	60	63	346	275	7-10_13:27:4.0	1488.9
167	10	27	41	14	13	23	56	55	0	347	7-10_13:27:5.0	1495.6
203	11	33	68	15	34	49	60	59	348	285	7-10_13:27:6.0	1501.1
172	13	32	60	12	26	31	65	60	352	335	7-10_13:27:7.0	1507.7
175	11	34	69	12	28	34	68	59	356	348	7-10_13:27:8.0	1514.8
185	10	49	90	15	38	40	95	60	346	346	7-10_13:27:9.0	1519.6
157	13	51	67	21	26	32	68	58	358	359	7-10_13:27:10.0	1526.4
199	22	81	102	30	45	49	85	61	352	271	7-10_13:27:11.0	1533.9
168	6	22	64	16	22	44	53	61	352	251	7-10_13:27:12.0	1541.5
157	10	26	46	13	17	26	59	58	0	297	7-10_13:27:13.0	1549.4
164	12	34	57	20	23	50	53	62	347	259	7-10_13:27:14.0	1557
177	7	26	46	9	19	27	52	60	357	323	7-10_13:27:15.0	1564.9
212	5	27	71	16	32	59	53	63	345	286	7-10_13:27:16.0	1569.9
173	11	34	60	15	21	32	68	61	358	348	7-10_13:27:17.0	1574.9
194	6	30	81	9	36	47	71	63	347	318	7-10_13:27:18.0	1581
249	17	98	140	37	52	60	117	61	353	320	7-10_13:27:19.0	1586.2
229	15	88	115	31	50	57	91	61	349	286	7-10_13:27:20.0	1592
188	7	47	96	30	32	55	72	64	347	227	7-10_13:27:21.0	1598.1
168	11	34	48	13	24	27	60	59	0	295	7-10_13:27:22.0	1604.7
183	4	27	81	20	33	63	53	60	347	239	7-10_13:27:23.0	1612.1
181	3	16	52	3	26	24	53	59	357	331	7-10_13:27:24.0	1620.7
203	9	32	57	16	30	41	61	62	347	297	7-10_13:27:25.0	1626.8
187	12	34	62	15	29	41	67	61	347	318	7-10_13:27:26.0	1633.8
166	5	31	68	15	26	31	69	57	2	7	7-10_13:27:27.0	1641.6
221	16	62	123	31	49	62	118	62	347	327	7-10_13:27:28.0	1648.4
172	2	20	72	13	25	46	50	61	0	290	7-10_13:27:29.0	1654.5
383	23	177	276	83	111	121	179	61	345	228	7-10_13:27:30.0	1660.5
175	11	26	58	10	29	44	54	61	354	279	7-10_13:27:31.0	1666.6
189	10	26	58	19	22	48	60	62	346	273	7-10_13:27:32.0	1672.2
220	9	27	70	20	34	63	63	62	348	279	7-10_13:27:33.0	1679.4
196	12	34	64	16	27	51	61	56	354	322	7-10_13:27:34.0	1685.6
173	0	21	85	10	24	51	62	60	343	6	7-10_13:27:35.0	1691.2
189	13	48	82	25	34	43	76	59	4	226	7-10_13:27:36.0	1698
201	16	70	150	29	45	62	136	60	349	34	7-10_13:27:37.0	1703.8
486	46	213	389	69	129	124	443	57	1	89	7-10_13:27:38.0	1708.9
184	13	31	60	8	27	38	56	61	342	328	7-10_13:27:39.0	1713.9
203	8	37	100	22	43	57	92	62	355	343	7-10_13:27:40.0	1719.6
186	7	30	88	14	45	75	69	56	0	307	7-10_13:27:41.0	1725.3
177	3	37	82	21	30	48	65	59	342	326	7-10_13:27:42.0	1731.2
188	11	31	65	18	33	42	61	62	352	315	7-10_13:27:43.0	1738.1
183	6	30	74	17	33	51	63	56	0	253	7-10_13:27:44.0	1745.4
168	13	41	77	17	29	34	76	56	351	13	7-10_13:27:45.0	1752.6
315	27	121	187	44	82	83	177	62	351	29	7-10_13:27:46.0	1759
185	9	55	104	29	45	55	70	57	357	287	7-10_13:27:47.0	1765.5
207	10	67	119	31	53	75	81	59	349	251	7-10_13:27:48.0	1771.8
188	9	27	47	12	24	34	53	60	0	313	7-10_13:27:49.0	1777.5
201	12	34	70	17	47	69	63	63	345	252	7-10_13:27:50.0	1783.2
191	11	29	53	16	28	40	56	60	353	318	7-10_13:27:51.0	1788.7
185	9	31	60	4	30	41	53	61	349	332	7-10_13:27:52.0	1794.7
218	11	54	120	26	46	55	110	63	350	356	7-10_13:27:53.0	1800.2
186	14	61	104	29	43	49	86	59	359	13	7-10_13:27:54.0	1807.5
299	17	99	182	41	69	79	191	60	347	12	7-10_13:27:55.0	1815.1
164	12	32	66	17	25	37	61	58	353	288	7-10_13:27:56.0	1822.8
170	11	34	69	9	30	45	60	59	359	276	7-10_13:27:57.0	1830.3
198	14	59	114	27	50	73	78	59	348	219	7-10_13:27:58.0	1837.3
189	6	20	50	14	25	36	53	59	358	314	7-10_13:27:59.0	1844.9
207	10	29	72	18	32	56	58	62	347	294	7-10_13:28:0.0	1851.8
184	13	30	69	14	26	49	66	60	349	320	7-10_13:28:1.0	1856.2
187	13	48	101	15	36	53	94	60	358	7	7-10_13:28:2.0	1862.4
432	46	190	372	75	141	128	395	63	348	75	7-10_13:28:3.0	1869.6
217	12	73	116	27	53	73	82	56	353	261	7-10_13:28:4.0	1876.8
178	11	26	44	7	27	34	49	60	356	312	7-10_13:28:5.0	1882.8
197	15	33	65	13	32	52	54	64	344	284	7-10_13:28:6.0	1887.7
200	12	28	63	11	30	50	55	61	353	311	7-10_13:28:7.0	1893.6
216	15	37	75	17	38	64	59	61	347	291	7-10_13:28:8.0	1901.7
187	8	37	96	19	27	41	87	60	352	354	7-10_13:28:9.0	1907.7
197	12	52	109	24	43	53	94	60	352	357	7-10_13:28:10.0	1913.8
343	23	132	203	49	80	83	194	61	349	42	7-10_13:28:11.0	1919.5
171	10	34	71	11	29	46	58	56	357	314	7-10_13:28:12.0	1924.5
244	15	88	144	45	64	80	99	61	348	255	7-10_13:28:13.0	1930.3
198	7	30	74	12	37	65	69	59	355	258	7-10_13:28:14.0	1935.6
198	19	41	82	17	43	73	67	54	356	268	7-10_13:28:15.0	1943
190	4	27	67	18	44	61	53	51	343	261	7-10_13:28:16.0	1950.5
371	33	159	275	61	105	114	298	56	355	36	7-10_13:28:17.0	1956.5
180	7	31	57	13	23	33	57	49	342	354	7-10_13:28:18.0	1964.7
232	17	64	134	32	67	80	130	53	351	359	7-10_13:28:19.0	1971.2
193	13	29	66	16	42	57	54	55	343	338	7-10_13:28:20.0	1978
187	12	28	60	15	24	38	60	48	351	340	7-10_13:28:21.0	1984.7
169	7	31	69	7	28	44	72	54	342	12	7-10_13:28:22.0	1989.4
184	11	40	82	20	40	56	67	53	6	213	7-10_13:28:23.0	1991.3
192	11	38	91	22	43	52	87	61	340	4	7-10_13:28:24.0	1996.7
326	23	129	198	55	78	87	182	60	352	34	7-10_13:28:25.0	2000.7
190	13	59	88	13	33	51	75	55	359	340	7-10_13:28:26.0	2006.7
217	18	63	121	28	51	61	95	57	353	357	7-10_13:28:27.0	2012.3
249	14	83	138	36	62	74	104	61	350	297	7-10_13:28:28.0	2017.6
184	12	36	66	14	27	43	60	58	1	285	7-10_13:28:29.0	2022.4
255	19	100	155	49	71	97	103	59	346	193	7-10_13:28:30.0	2028.6
195	11	26	55	13	29	45	54	58	351	299	7-10_13:28:31.0	2033.5
193	11	25	59	17	24	37	45	58	0	332	7-10_13:28:32.0	2038.7
211	10	32	68	17	44	67	61	60	346	278	7-10_13:28:33.0	2044.9
188	8	32	67	12	34	47	66	56	358	353	7-10_13:28:34.0	2052.3
188	10	37	66	9	36	51	73	59	353	344	7-10_13:28:35.0	2058.7
205	11	47	95	21	42	54	86	61	351	353	7-10_13:28:36.0	2065.6
208	9	65	104	23	54	65	88	60	358	339	7-10_13:28:37.0	2065.6
422	26	201	286	83	124	142	208	61	350	250	7-10_13:28:38.0	2077.9
178	10	31	60	10	29	43	60	59	358	287	7-10_13:28:39.0	2083.5
188	13	36	81	25	47	69	57	63	347	247	7-10_13:28:40.0	2091
198	8	28	67	12	27	48	50	60	355	304	7-10_13:28:41.0	2099.7
