IR940	IR830	RED	YELLOW	GREEN	BLUE	VIOLET400	UV351	Pitch	Roll	Heading	GPSTime	Altitude
423	137	165	528	49	96	124	231	4	0	8	7-15_12:55:5.0	288.6
420	133	174	520	52	92	117	232	3	0	8	7-15_12:55:6.0	288.1
421	135	174	520	52	95	117	232	4	0	8	7-15_12:55:7.0	288.2
417	139	178	518	58	102	126	227	3	0	8	7-15_12:55:8.0	287.9
421	136	177	520	59	93	116	231	4	0	8	7-15_12:55:9.0	287.9
416	143	172	524	54	95	120	229	4	0	8	7-15_12:55:10.0	287.4
415	141	172	521	58	100	124	229	4	0	8	7-15_12:55:11.0	287.5
412	140	168	522	52	92	118	225	4	0	7	7-15_12:55:12.0	287.1
412	147	165	528	53	91	118	223	3	0	8	7-15_12:55:13.0	286.7
417	141	172	522	56	97	123	231	3	0	8	7-15_12:55:14.0	286.5
415	147	162	526	56	98	129	233	4	0	8	7-15_12:55:15.0	286.4
408	145	167	516	61	100	119	232	4	0	8	7-15_12:55:16.0	286.4
415	141	171	521	56	99	122	233	3	0	8	7-15_12:55:17.0	286.4
417	137	172	521	53	94	119	229	4	0	8	7-15_12:55:18.0	286.3
420	141	168	525	61	103	124	235	3	0	8	7-15_12:55:19.0	286.2
414	136	174	522	53	93	117	230	3	0	8	7-15_12:55:20.0	285.6
412	130	177	527	53	101	128	237	3	0	8	7-15_12:55:21.0	286.2
414	137	175	525	54	97	125	235	3	0	9	7-15_12:55:22.0	285.4
418	134	172	529	61	104	123	232	4	0	9	7-15_12:55:23.0	285
419	140	163	513	54	87	119	231	4	0	8	7-15_12:55:24.0	285
419	146	172	516	43	96	129	232	4	0	7	7-15_12:55:25.0	284.5
415	140	173	521	54	97	120	231	3	0	8	7-15_12:55:26.0	285.3
415	137	172	525	63	96	118	234	4	0	8	7-15_12:55:27.0	284.2
415	139	168	519	52	95	119	230	4	0	8	7-15_12:55:28.0	283.5
406	132	171	520	59	89	125	235	3	0	8	7-15_12:55:29.0	282.7
411	138	169	513	48	105	114	235	3	0	8	7-15_12:55:30.0	281.2
414	140	169	522	58	96	120	235	3	0	7	7-15_12:55:31.0	281.2
415	141	173	523	60	90	125	231	4	0	8	7-15_12:55:32.0	280.1
405	132	176	525	58	97	126	229	3	0	8	7-15_12:55:33.0	279.3
413	143	168	521	58	98	122	233	4	0	8	7-15_12:55:34.0	279.1
417	130	167	521	56	95	116	231	3	0	8	7-15_12:55:35.0	279.7
411	137	169	522	49	96	124	230	3	0	8	7-15_12:55:36.0	279.5
417	138	164	519	61	90	115	235	4	0	8	7-15_12:55:37.0	279.3
416	143	163	519	71	93	104	238	3	0	8	7-15_12:55:38.0	278.6
411	134	168	527	57	100	116	234	3	0	8	7-15_12:55:39.0	278.9
408	144	178	526	54	99	109	237	3	0	8	7-15_12:55:40.0	278.3
411	146	180	522	49	102	113	238	3	0	7	7-15_12:55:41.0	279
413	145	176	526	59	94	121	230	4	0	8	7-15_12:55:42.0	279.1
412	140	168	522	60	93	119	237	4	0	8	7-15_12:55:43.0	278.2
414	135	168	524	58	96	117	234	4	0	9	7-15_12:55:44.0	278.4
411	142	172	518	53	96	121	232	3	0	8	7-15_12:55:45.0	278
407	138	176	519	51	96	126	229	3	0	8	7-15_12:55:46.0	277.5
406	141	176	520	50	98	127	228	4	0	8	7-15_12:55:47.0	276.8
408	138	174	520	54	96	125	229	3	0	9	7-15_12:55:48.0	276.3
413	141	169	523	59	97	117	235	3	0	8	7-15_12:55:49.0	276.4
412	141	169	526	57	103	123	229	3	0	7	7-15_12:55:50.0	276
400	153	169	526	57	108	136	231	4	0	8	7-15_12:55:51.0	276.1
408	142	179	516	59	90	116	239	3	0	8	7-15_12:55:52.0	277
409	143	172	521	59	100	124	231	4	0	8	7-15_12:55:53.0	276.6
414	137	168	527	52	99	129	233	4	0	8	7-15_12:55:54.0	276.5
405	144	175	519	63	102	124	227	3	0	7	7-15_12:55:55.0	276.4
409	141	169	523	55	95	122	230	4	0	8	7-15_12:55:56.0	276.1
416	133	173	519	57	95	121	234	3	0	8	7-15_12:55:57.0	277.4
416	131	178	515	60	94	114	229	3	0	8	7-15_12:55:58.0	277.2
413	135	175	517	63	103	125	236	4	0	8	7-15_12:55:59.0	277.2
408	142	168	523	57	100	121	236	3	0	9	7-15_12:56:0.0	277.6
416	134	175	522	53	92	114	230	4	0	8	7-15_12:56:1.0	277.5
406	134	173	511	62	102	126	236	3	0	8	7-15_12:56:2.0	277.8
405	142	167	522	55	94	120	231	3	0	8	7-15_12:56:3.0	278.4
411	137	172	522	52	93	116	231	3	0	8	7-15_12:56:4.0	278.5
409	136	171	518	52	93	117	230	3	0	8	7-15_12:56:5.0	278.3
408	135	174	516	57	97	117	231	3	0	8	7-15_12:56:6.0	277.8
409	134	177	518	55	94	118	233	3	0	8	7-15_12:56:7.0	277.7
412	139	171	522	56	98	124	236	3	0	8	7-15_12:56:8.0	277.4
415	130	174	525	51	96	127	237	4	0	8	7-15_12:56:9.0	277.7
411	142	167	517	58	97	117	230	3	0	7	7-15_12:56:10.0	277.7
414	143	161	517	65	102	114	229	3	0	8	7-15_12:56:11.0	277.7
413	138	166	518	64	97	112	227	4	0	8	7-15_12:56:12.0	277.6
417	138	163	517	59	93	112	230	4	0	8	7-15_12:56:13.0	277.8
406	139	178	521	49	95	129	238	4	0	8	7-15_12:56:14.0	277.8
408	142	173	518	56	95	120	234	4	0	8	7-15_12:56:15.0	277.5
408	138	172	520	56	94	123	237	3	0	8	7-15_12:56:16.0	277.8
409	136	172	520	56	98	123	233	4	0	8	7-15_12:56:17.0	277.7
407	138	171	517	53	101	117	237	3	0	8	7-15_12:56:18.0	277.5
411	149	180	521	54	92	127	233	3	0	7	7-15_12:56:19.0	277.7
413	144	174	520	56	94	124	233	4	0	8	7-15_12:56:20.0	277.5
405	137	170	517	51	95	127	233	4	0	8	7-15_12:56:21.0	277.6
407	138	183	527	65	89	125	237	3	0	8	7-15_12:56:22.0	277.5
409	141	173	520	54	100	118	233	3	0	8	7-15_12:56:23.0	277.7
412	144	180	527	64	91	124	238	4	0	8	7-15_12:56:24.0	277.7
411	142	176	524	61	95	120	238	3	0	8	7-15_12:56:25.0	277.9
402	137	173	523	56	100	111	237	3	0	7	7-15_12:56:26.0	277.9
405	136	169	524	64	89	132	230	3	0	8	7-15_12:56:27.0	277.9
404	138	170	522	60	96	125	236	3	0	7	7-15_12:56:28.0	278.1
407	140	172	520	56	98	120	236	3	0	8	7-15_12:56:29.0	278.4
410	141	177	519	54	97	120	230	3	0	8	7-15_12:56:30.0	278.9
407	139	172	519	55	92	125	231	4	0	8	7-15_12:56:31.0	278.8
399	136	172	526	64	90	127	229	4	0	8	7-15_12:56:32.0	279
406	141	175	524	60	95	118	233	4	0	8	7-15_12:56:33.0	279
406	142	165	513	59	93	121	233	4	0	8	7-15_12:56:34.0	278.9
402	139	175	520	53	98	119	234	3	0	8	7-15_12:56:35.0	279.3
410	140	171	516	58	93	123	230	3	0	8	7-15_12:56:36.0	279.7
405	136	170	520	60	94	121	234	3	0	8	7-15_12:56:37.0	280.3
407	138	170	518	57	92	116	234	3	0	8	7-15_12:56:38.0	280.5
407	140	170	514	58	89	120	233	3	0	8	7-15_12:56:39.0	281.2
404	139	174	519	57	95	119	235	3	0	9	7-15_12:56:40.0	281.5
406	135	173	522	52	99	124	232	3	0	8	7-15_12:56:41.0	281.5
397	144	175	511	61	89	112	236	4	0	8	7-15_12:56:42.0	281.9
399	141	174	514	59	94	114	230	3	0	8	7-15_12:56:43.0	282.1
408	136	170	521	54	97	122	233	3	0	7	7-15_12:56:44.0	282.5
408	132	177	517	59	95	118	231	3	0	8	7-15_12:56:45.0	282.5
403	137	169	519	51	90	114	237	3	0	8	7-15_12:56:46.0	282.6
403	138	167	521	51	90	114	236	4	0	8	7-15_12:56:47.0	282.7
405	140	165	523	50	98	127	232	3	0	8	7-15_12:56:48.0	283
403	145	170	524	48	92	115	234	3	0	8	7-15_12:56:49.0	283.3
397	145	160	518	59	99	126	235	3	0	8	7-15_12:56:50.0	283.4
406	135	175	518	54	96	119	236	3	0	8	7-15_12:56:51.0	283.4
407	137	174	519	56	94	118	237	3	0	8	7-15_12:56:52.0	283.5
409	136	175	520	53	94	119	232	4	0	8	7-15_12:56:53.0	283.6
410	138	173	524	52	94	120	234	4	0	8	7-15_12:56:54.0	283.3
401	139	170	523	58	96	121	234	3	0	8	7-15_12:56:55.0	283.5
406	137	171	521	57	101	121	237	3	0	8	7-15_12:56:56.0	283.7
413	138	171	527	56	99	126	237	4	0	9	7-15_12:56:57.0	283.8
403	141	171	516	60	98	118	235	4	0	8	7-15_12:56:58.0	283.9
407	134	176	526	56	100	130	241	3	0	8	7-15_12:56:59.0	283.7
404	141	173	518	58	95	115	231	3	0	7	7-15_12:57:0.0	283.8
406	140	176	519	57	98	117	234	2	0	8	7-15_12:57:1.0	283.7
405	143	181	517	56	103	120	238	3	0	8	7-15_12:57:2.0	283.5
398	129	163	514	56	98	126	234	3	0	8	7-15_12:57:3.0	283.5
410	136	172	516	50	92	120	235	3	0	8	7-15_12:57:4.0	283.6
405	142	176	521	58	96	119	235	4	0	8	7-15_12:57:5.0	283.9
403	136	171	518	57	91	125	234	4	0	8	7-15_12:57:6.0	284.1
401	134	171	517	57	92	119	232	3	0	8	7-15_12:57:7.0	283.9
407	140	162	510	47	94	131	235	3	0	8	7-15_12:57:8.0	283.9
401	138	178	524	62	99	113	232	4	0	8	7-15_12:57:9.0	284.1
396	129	172	520	64	91	125	240	3	0	8	7-15_12:57:10.0	282.9
396	132	174	521	60	96	119	233	3	0	8	7-15_12:57:11.0	282.8
399	133	171	518	58	92	129	236	4	0	9	7-15_12:57:12.0	282.7
403	142	173	518	55	96	120	233	4	0	8	7-15_12:57:13.0	283.1
397	132	165	511	52	102	112	235	3	0	8	7-15_12:57:14.0	283.2
404	145	177	520	55	101	115	239	3	0	8	7-15_12:57:15.0	283.5
396	134	169	516	56	98	119	235	3	0	9	7-15_12:57:16.0	283.5
401	138	173	516	53	100	119	236	3	0	8	7-15_12:57:17.0	284.2
399	132	168	517	58	96	123	233	3	0	8	7-15_12:57:18.0	284.4
407	138	174	510	46	107	110	241	4	0	8	7-15_12:57:19.0	284.4
403	137	173	522	59	99	117	238	4	0	8	7-15_12:57:20.0	285
400	133	166	515	57	99	123	237	3	0	8	7-15_12:57:21.0	284.9
408	142	177	519	57	96	122	231	4	0	8	7-15_12:57:22.0	284.1
401	137	173	517	53	100	121	234	4	0	8	7-15_12:57:23.0	284.2
397	131	166	518	63	89	131	227	4	0	8	7-15_12:57:24.0	284.5
406	137	170	513	61	91	119	234	3	0	8	7-15_12:57:25.0	284.5
397	146	184	516	50	99	117	238	3	0	9	7-15_12:57:26.0	284.6
399	141	181	512	54	93	123	233	4	0	8	7-15_12:57:27.0	284.8
402	136	172	521	58	98	115	238	3	0	8	7-15_12:57:28.0	285
406	135	170	517	58	92	114	238	4	0	8	7-15_12:57:29.0	285.3
403	140	177	515	58	103	127	235	3	0	8	7-15_12:57:30.0	285.6
398	145	178	515	53	95	127	233	4	0	8	7-15_12:57:31.0	285.8
404	143	172	513	65	91	115	240	4	0	8	7-15_12:57:32.0	286.4
403	141	173	517	57	97	122	231	3	0	9	7-15_12:57:33.0	286.7
405	134	169	520	57	99	116	236	3	0	8	7-15_12:57:34.0	286.9
402	135	173	520	55	99	116	237	3	0	8	7-15_12:57:35.0	286.8
399	131	177	522	48	103	127	229	3	0	8	7-15_12:57:36.0	286.7
398	134	176	518	53	96	121	235	3	0	8	7-15_12:57:37.0	286.3
399	141	177	515	56	94	120	235	3	0	8	7-15_12:57:38.0	286.3
399	140	174	518	59	98	117	238	4	0	8	7-15_12:57:39.0	286
401	139	176	519	54	97	122	236	3	0	8	7-15_12:57:40.0	285.8
401	136	171	524	49	97	127	236	3	0	8	7-15_12:57:41.0	285.8
410	137	177	521	54	95	119	238	4	0	9	7-15_12:57:42.0	286
398	142	169	525	48	94	121	241	4	0	8	7-15_12:57:43.0	286.4
405	132	182	511	64	100	123	224	3	0	8	7-15_12:57:44.0	286.5
400	136	179	517	56	97	116	235	4	0	8	7-15_12:57:45.0	286.7
403	136	184	513	62	103	130	235	3	0	8	7-15_12:57:46.0	286.6
402	131	174	515	59	97	123	230	3	0	8	7-15_12:57:47.0	286.5
400	138	173	520	54	94	117	234	3	0	8	7-15_12:57:48.0	286.7
401	136	174	516	59	98	126	233	3	0	8	7-15_12:57:49.0	286.6
399	141	172	521	53	94	118	231	4	0	8	7-15_12:57:50.0	286.8
396	137	173	517	56	96	121	235	3	0	8	7-15_12:57:51.0	286.9
401	133	180	510	63	103	122	235	3	0	8	7-15_12:57:52.0	287.2
398	132	181	510	59	96	117	235	3	0	8	7-15_12:57:53.0	287.3
399	134	177	515	58	99	121	238	3	0	8	7-15_12:57:54.0	287.1
392	139	175	511	62	102	127	241	3	0	8	7-15_12:57:55.0	287.2
397	136	178	514	56	95	117	235	3	0	8	7-15_12:57:56.0	287.1
397	140	175	518	56	99	120	233	3	0	8	7-15_12:57:57.0	287.2
393	139	176	513	56	96	112	228	3	0	7	7-15_12:57:58.0	286.8
399	138	175	522	56	97	125	236	3	0	8	7-15_12:57:59.0	286.8
396	139	175	516	59	102	124	237	4	0	8	7-15_12:58:0.0	286.9
398	134	177	522	57	101	126	238	4	0	8	7-15_12:58:1.0	287.3
399	136	174	521	57	100	124	236	3	0	8	7-15_12:58:2.0	287.7
400	141	173	516	59	101	117	232	4	0	8	7-15_12:58:3.0	287.4
397	136	173	519	60	101	112	228	3	0	8	7-15_12:58:4.0	287.4
403	138	170	518	65	101	120	233	3	0	8	7-15_12:58:5.0	287.2
396	136	176	518	55	98	117	232	3	0	8	7-15_12:58:6.0	287.2
398	137	171	516	58	95	123	236	3	0	7	7-15_12:58:7.0	286.1
396	133	172	518	59	98	113	228	3	0	8	7-15_12:58:8.0	286
401	143	171	513	54	94	122	235	3	0	8	7-15_12:58:9.0	285.7
395	140	177	521	53	99	123	234	3	0	8	7-15_12:58:10.0	284.8
400	144	178	518	52	100	121	234	4	0	8	7-15_12:58:11.0	284.5
400	143	171	513	49	96	119	234	3	0	8	7-15_12:58:12.0	283.2
392	136	181	522	60	98	119	235	3	0	8	7-15_12:58:13.0	281.5
398	140	176	519	57	101	119	234	4	0	8	7-15_12:58:14.0	280.2
390	134	180	525	66	95	122	240	3	0	8	7-15_12:58:15.0	279.3
392	134	177	521	59	95	122	234	3	0	8	7-15_12:58:16.0	278.2
388	131	175	518	56	93	115	236	4	0	8	7-15_12:58:17.0	277.2
396	138	170	514	55	98	126	233	3	0	8	7-15_12:58:18.0	276.8
395	138	177	519	58	95	123	237	3	0	8	7-15_12:58:19.0	275.5
393	136	174	516	55	98	123	233	3	0	8	7-15_12:58:20.0	274.6
389	128	171	510	46	103	116	227	3	0	8	7-15_12:58:21.0	274.9
393	135	174	514	49	102	111	231	3	0	8	7-15_12:58:22.0	274.7
400	141	183	520	57	94	119	229	4	0	8	7-15_12:58:23.0	274
400	142	179	521	58	93	127	236	3	0	8	7-15_12:58:24.0	273.2
393	139	174	522	64	90	129	235	3	0	8	7-15_12:58:25.0	273
392	143	177	524	63	94	123	231	3	0	8	7-15_12:58:26.0	272.4
392	139	175	518	57	97	125	235	3	0	8	7-15_12:58:27.0	272
396	141	175	517	58	97	119	237	4	0	8	7-15_12:58:28.0	271.7
394	140	177	519	56	97	120	235	3	0	8	7-15_12:58:29.0	271.9
391	135	171	520	62	93	123	233	4	0	8	7-15_12:58:30.0	272.7
396	146	181	515	54	100	119	237	3	0	8	7-15_12:58:31.0	271.9
394	142	177	513	53	97	125	234	3	0	7	7-15_12:58:32.0	271.7
401	138	171	512	58	93	129	233	3	0	8	7-15_12:58:33.0	271.7
395	130	178	515	56	90	121	233	3	0	8	7-15_12:58:34.0	271.5
396	139	174	514	58	91	119	237	4	0	8	7-15_12:58:35.0	272.5
390	137	175	518	57	95	122	233	3	0	8	7-15_12:58:36.0	272.9
392	130	169	514	60	93	127	232	3	0	8	7-15_12:58:37.0	273.1
390	143	182	519	51	101	108	238	4	0	8	7-15_12:58:38.0	272.5
385	144	184	520	46	107	127	233	3	0	8	7-15_12:58:39.0	273.7
390	140	180	516	51	100	125	232	3	0	8	7-15_12:58:40.0	273.7
388	145	178	513	57	94	119	235	3	0	8	7-15_12:58:41.0	273.6
394	135	173	520	55	102	119	238	4	0	8	7-15_12:58:42.0	274.2
389	139	179	517	52	100	126	232	3	0	8	7-15_12:58:43.0	274.5
390	138	178	516	53	99	125	233	4	0	8	7-15_12:58:44.0	274.8
398	137	169	520	61	102	120	235	4	0	8	7-15_12:58:45.0	275
395	136	174	520	55	101	122	234	4	0	8	7-15_12:58:46.0	275.4
396	145	170	515	62	96	114	239	4	0	8	7-15_12:58:47.0	276.1
393	137	176	516	56	96	124	235	4	0	8	7-15_12:58:48.0	275.5
394	136	176	518	54	97	124	235	4	0	8	7-15_12:58:49.0	274.7
398	133	173	520	49	96	129	236	4	0	8	7-15_12:58:50.0	274.8
392	140	177	515	56	93	119	239	3	0	8	7-15_12:58:51.0	274.8
396	134	172	519	51	94	118	240	4	0	9	7-15_12:58:52.0	273.4
394	134	180	515	58	96	123	232	3	0	8	7-15_12:58:53.0	273.5
393	136	176	515	56	97	124	233	4	0	8	7-15_12:58:54.0	273.9
386	140	176	517	54	98	118	232	3	0	8	7-15_12:58:55.0	273.6
399	132	171	521	46	94	116	240	4	0	7	7-15_12:58:56.0	273.8
393	137	175	516	53	96	124	237	3	0	7	7-15_12:58:57.0	273.2
395	136	179	517	58	101	128	239	3	0	8	7-15_12:58:58.0	273.7
388	142	178	514	50	95	124	237	3	0	9	7-15_12:58:59.0	274.8
394	136	175	517	56	95	123	238	3	0	8	7-15_12:59:0.0	275
395	135	183	513	61	99	116	238	3	0	8	7-15_12:59:1.0	274.7
394	138	175	519	54	97	121	235	3	0	8	7-15_12:59:2.0	274.4
386	140	174	514	60	98	126	236	4	0	8	7-15_12:59:3.0	274.6
395	133	181	513	60	100	123	237	3	0	8	7-15_12:59:4.0	274.8
392	136	179	513	57	98	120	237	4	0	8	7-15_12:59:5.0	275.6
388	141	172	515	60	100	117	235	3	0	8	7-15_12:59:6.0	276.8
394	143	171	518	57	99	122	238	3	0	8	7-15_12:59:7.0	276.8
389	134	180	514	53	92	114	236	3	0	8	7-15_12:59:8.0	278.4
396	142	168	514	64	103	116	234	3	0	8	7-15_12:59:9.0	279
394	146	168	518	64	105	127	243	3	0	9	7-15_12:59:10.0	279.2
394	140	174	516	57	98	128	241	3	0	8	7-15_12:59:11.0	279.5
392	136	176	520	54	98	128	242	3	0	8	7-15_12:59:12.0	279.5
390	141	176	515	55	96	121	236	3	0	8	7-15_12:59:13.0	279.8
387	130	181	521	54	99	127	240	3	0	8	7-15_12:59:14.0	280.1
398	144	166	513	61	96	113	232	3	0	8	7-15_12:59:15.0	280.4
388	139	177	519	60	92	129	239	3	0	8	7-15_12:59:16.0	281.3
391	132	175	522	62	103	125	238	3	0	8	7-15_12:59:17.0	281.7
385	136	181	521	56	101	121	236	3	0	8	7-15_12:59:18.0	282
381	127	178	524	67	99	109	231	3	0	7	7-15_12:59:19.0	282.7
385	135	180	520	57	102	121	236	4	0	9	7-15_12:59:20.0	282.8
390	142	176	514	52	98	123	238	3	0	8	7-15_12:59:21.0	283.4
390	140	179	518	56	102	117	233	4	0	8	7-15_12:59:22.0	284
388	139	170	513	52	99	120	238	4	0	8	7-15_12:59:23.0	284.6
386	140	179	519	56	96	124	238	3	0	7	7-15_12:59:24.0	285.2
385	136	171	514	55	97	119	237	4	0	8	7-15_12:59:25.0	285.2
386	136	174	516	56	98	120	241	3	0	8	7-15_12:59:26.0	285.2
388	139	178	518	54	99	120	235	3	0	8	7-15_12:59:27.0	285.3
393	143	183	524	63	95	122	242	3	0	8	7-15_12:59:28.0	285.8
386	135	170	513	53	103	114	238	3	0	8	7-15_12:59:29.0	285.9
389	140	178	518	57	94	125	237	3	0	8	7-15_12:59:30.0	285.9
385	136	172	516	54	102	117	238	3	0	8	7-15_12:59:31.0	286.1
384	136	174	515	54	101	116	238	3	0	8	7-15_12:59:32.0	286.3
379	131	167	515	56	98	120	240	3	0	8	7-15_12:59:33.0	286.1
388	136	174	511	50	103	113	241	3	0	8	7-15_12:59:34.0	286
381	135	170	514	55	100	119	237	4	0	8	7-15_12:59:35.0	286.6
389	145	183	519	52	102	113	240	3	0	8	7-15_12:59:36.0	286.7
383	137	176	519	59	97	123	238	3	0	8	7-15_12:59:37.0	286.8
384	140	180	518	54	101	116	241	3	0	8	7-15_12:59:38.0	286.9
386	146	184	517	50	104	118	242	4	0	8	7-15_12:59:39.0	287
379	147	187	515	47	101	129	232	4	0	8	7-15_12:59:40.0	286.8
383	134	181	521	48	101	127	234	2	0	7	7-15_12:59:41.0	286.9
382	145	178	510	59	90	124	238	3	0	8	7-15_12:59:42.0	287.3
387	132	174	519	54	100	118	236	3	0	8	7-15_12:59:43.0	287.5
394	135	168	519	61	99	111	244	3	0	8	7-15_12:59:44.0	287.6
386	134	169	521	58	103	118	238	4	0	8	7-15_12:59:45.0	287.4
389	136	174	519	55	100	120	237	3	0	8	7-15_12:59:46.0	287.9
384	139	173	518	54	98	124	235	3	0	8	7-15_12:59:47.0	288.3
390	134	173	520	53	99	124	232	3	0	8	7-15_12:59:48.0	288.1
380	147	176	512	65	95	111	245	4	0	8	7-15_12:59:49.0	288.2
383	138	176	514	57	95	113	243	4	0	8	7-15_12:59:50.0	288.6
379	142	175	514	61	102	116	234	3	0	8	7-15_12:59:51.0	288.7
375	151	171	514	64	105	117	233	3	0	8	7-15_12:59:52.0	288.8
386	138	175	518	54	96	121	237	4	0	8	7-15_12:59:53.0	288.7
384	140	179	513	61	94	117	241	3	0	7	7-15_12:59:54.0	288.9
388	138	171	520	50	95	124	240	3	0	7	7-15_12:59:55.0	289
387	135	175	516	54	96	119	241	3	0	8	7-15_12:59:56.0	289.3
383	140	173	518	53	96	126	237	3	0	8	7-15_12:59:57.0	289
385	138	176	516	56	95	118	236	3	0	8	7-15_12:59:58.0	289.1
381	141	171	519	50	92	117	242	3	0	8	7-15_12:59:59.0	289.2
379	144	171	521	49	92	116	240	3	0	8	7-15_13:0:0.0	289.5
389	130	183	509	62	104	130	240	3	0	8	7-15_13:0:1.0	289.5
382	140	172	517	53	94	117	238	3	0	8	7-15_13:0:2.0	289.7
379	140	174	512	57	97	119	237	3	0	8	7-15_13:0:3.0	289.8
382	141	172	518	53	93	116	235	3	0	8	7-15_13:0:4.0	289.5
387	140	177	521	48	90	112	241	4	0	8	7-15_13:0:5.0	289.5
388	141	172	525	46	87	108	232	4	0	8	7-15_13:0:6.0	289.5
380	131	182	507	60	101	120	244	3	0	8	7-15_13:0:7.0	289.5
381	140	172	518	55	98	124	237	3	0	8	7-15_13:0:8.0	289.5
384	142	173	519	55	95	117	237	3	0	8	7-15_13:0:9.0	289.5
382	139	175	519	52	93	113	241	3	0	7	7-15_13:0:10.0	289.5
379	138	179	513	55	96	116	237	4	0	9	7-15_13:0:11.0	289.3
382	128	186	518	46	89	118	234	3	0	8	7-15_13:0:12.0	289.5
378	144	174	509	59	96	113	236	4	0	8	7-15_13:0:13.0	289.4
386	139	172	519	60	100	120	239	3	0	8	7-15_13:0:14.0	289.2
388	140	169	517	62	102	123	242	3	0	8	7-15_13:0:15.0	289.2
387	141	171	511	61	98	107	232	4	0	9	7-15_13:0:16.0	289.1
386	143	169	512	58	96	112	234	3	0	9	7-15_13:0:17.0	289.2
387	140	174	514	56	98	117	237	3	0	8	7-15_13:0:18.0	289.3
382	141	181	517	51	102	126	241	3	0	8	7-15_13:0:19.0	289.2
384	142	179	519	55	99	120	239	3	0	8	7-15_13:0:20.0	289.2
382	134	171	514	58	91	121	243	3	0	8	7-15_13:0:21.0	289.3
377	130	177	523	66	94	112	238	3	0	8	7-15_13:0:22.0	289
385	139	171	512	52	96	128	244	3	0	8	7-15_13:0:23.0	288.8
381	137	179	520	59	99	118	241	4	0	7	7-15_13:0:24.0	288.7
382	139	178	518	56	98	116	239	3	0	7	7-15_13:0:25.0	288.7
380	135	171	513	52	102	115	236	3	0	8	7-15_13:0:26.0	288.7
379	136	173	521	65	97	122	240	3	0	8	7-15_13:0:27.0	288.7
384	140	180	522	56	97	124	237	4	0	8	7-15_13:0:28.0	288.5
382	138	176	518	57	97	120	242	3	0	8	7-15_13:0:29.0	288.4
381	138	174	517	58	98	115	243	3	0	8	7-15_13:0:30.0	288.4
375	129	168	509	48	101	114	242	3	0	8	7-15_13:0:31.0	288.3
380	135	173	517	59	99	118	243	3	0	8	7-15_13:0:32.0	288.4
382	135	175	513	51	101	116	237	3	0	8	7-15_13:0:33.0	288.4
377	135	172	516	57	97	120	243	3	0	8	7-15_13:0:34.0	288.6
378	130	168	511	54	95	122	240	4	0	8	7-15_13:0:35.0	288.6
382	136	173	512	54	98	121	242	4	0	8	7-15_13:0:36.0	288.6
378	141	181	524	59	96	115	240	3	0	8	7-15_13:0:37.0	288.6
376	134	174	520	59	96	120	241	4	0	8	7-15_13:0:38.0	288.3
385	138	175	511	51	100	122	242	3	0	8	7-15_13:0:39.0	288.4
384	138	175	511	54	97	126	241	4	0	8	7-15_13:0:40.0	288.5
380	128	168	517	65	89	126	234	3	0	8	7-15_13:0:41.0	288.3
382	132	171	516	59	94	120	240	3	0	8	7-15_13:0:42.0	288.3
378	139	179	516	53	101	120	241	4	0	8	7-15_13:0:43.0	288.3
383	138	175	511	58	92	130	236	3	0	8	7-15_13:0:44.0	288.2
378	136	176	518	59	95	123	243	3	0	8	7-15_13:0:45.0	288.2
381	142	177	514	59	94	122	239	3	0	8	7-15_13:0:46.0	287.9
384	131	169	525	60	103	109	249	3	0	8	7-15_13:0:47.0	287.9
377	135	180	519	52	101	124	238	3	0	8	7-15_13:0:48.0	288.5
370	146	187	509	56	89	128	237	3	0	9	7-15_13:0:49.0	288.4
377	137	175	518	55	100	121	240	4	0	8	7-15_13:0:50.0	288.3
379	133	176	516	54	98	121	240	3	0	8	7-15_13:0:51.0	288.3
376	140	177	517	57	97	119	241	4	0	8	7-15_13:0:52.0	288.4
374	139	183	512	59	93	118	244	3	0	9	7-15_13:0:53.0	288.5
377	135	181	514	57	92	119	244	3	0	7	7-15_13:0:54.0	288.5
376	135	181	513	57	92	113	244	4	0	8	7-15_13:0:55.0	288.4
370	147	178	511	66	101	114	240	3	0	8	7-15_13:0:56.0	288.2
379	137	180	513	59	96	117	241	3	0	8	7-15_13:0:57.0	288
376	140	175	519	60	104	125	236	3	0	8	7-15_13:0:58.0	287.8
377	137	173	516	53	94	118	241	3	0	8	7-15_13:0:59.0	287.9
382	131	174	517	54	92	115	244	4	0	8	7-15_13:1:0.0	287.7
380	135	175	519	57	99	123	238	3	0	8	7-15_13:1:1.0	287.7
373	141	172	521	51	95	121	243	3	0	8	7-15_13:1:2.0	287.1
377	139	172	520	52	94	119	241	3	0	8	7-15_13:1:3.0	286.9
378	134	178	515	58	97	117	241	3	0	8	7-15_13:1:4.0	286.9
376	138	172	521	53	94	116	243	4	0	8	7-15_13:1:5.0	286.7
380	134	180	513	60	101	124	238	4	0	8	7-15_13:1:6.0	286.7
377	137	176	517	56	97	119	241	3	0	8	7-15_13:1:7.0	286.6
380	133	179	513	61	101	122	238	3	0	8	7-15_13:1:8.0	286.6
376	137	176	517	58	98	120	241	3	0	8	7-15_13:1:9.0	285.9
372	138	173	517	57	97	120	240	4	0	8	7-15_13:1:10.0	284.9
379	135	177	516	56	97	120	242	3	0	7	7-15_13:1:11.0	284.6
374	140	172	519	55	95	118	239	3	0	8	7-15_13:1:12.0	284.6
378	133	175	518	52	94	115	242	3	0	8	7-15_13:1:13.0	283.4
380	132	179	519	52	93	116	239	3	0	8	7-15_13:1:14.0	283
373	135	175	512	61	98	118	244	3	0	8	7-15_13:1:15.0	282.3
385	128	186	510	60	103	128	245	3	0	8	7-15_13:1:16.0	281.8
373	143	169	513	62	104	128	247	3	0	9	7-15_13:1:17.0	281.2
368	142	173	506	64	103	121	246	3	0	7	7-15_13:1:18.0	280.8
375	140	174	520	53	98	123	242	3	0	8	7-15_13:1:19.0	280.3
375	137	174	520	58	100	126	243	3	0	8	7-15_13:1:20.0	279.9
374	139	176	516	57	97	120	243	3	0	8	7-15_13:1:21.0	279.9
372	134	177	513	53	93	121	241	3	0	8	7-15_13:1:22.0	279.3
369	135	182	517	49	95	122	243	3	0	9	7-15_13:1:23.0	279.2
374	140	182	518	50	105	122	238	4	0	8	7-15_13:1:24.0	279
377	139	172	516	61	97	115	238	3	0	9	7-15_13:1:25.0	278.6
367	128	183	526	57	108	120	238	3	0	8	7-15_13:1:26.0	278.3
374	131	171	514	61	92	119	243	3	0	8	7-15_13:1:27.0	277.8
377	132	169	512	60	89	118	243	3	0	9	7-15_13:1:28.0	277.8
378	141	176	515	52	101	123	241	3	0	8	7-15_13:1:29.0	276.8
375	135	171	513	51	97	124	241	3	0	8	7-15_13:1:30.0	276.2
376	138	169	511	51	96	126	244	3	0	8	7-15_13:1:31.0	276.3
372	133	174	519	63	91	120	246	3	0	8	7-15_13:1:32.0	276.3
380	142	175	516	52	102	117	237	4	0	8	7-15_13:1:33.0	276.4
369	132	179	521	63	92	120	246	3	0	8	7-15_13:1:34.0	276.6
372	133	176	516	57	94	121	244	3	0	8	7-15_13:1:35.0	276.5
371	131	173	513	53	93	125	243	3	0	7	7-15_13:1:36.0	276.6
369	130	174	514	54	95	124	240	3	0	8	7-15_13:1:37.0	276.6
375	136	181	520	60	95	122	248	3	0	8	7-15_13:1:38.0	276.7
375	134	169	518	55	89	116	243	4	0	8	7-15_13:1:39.0	276.6
375	136	181	518	58	93	124	245	4	0	8	7-15_13:1:40.0	276.5
370	132	175	513	54	96	122	241	3	0	8	7-15_13:1:41.0	277.5
369	131	171	511	53	103	113	243	3	0	8	7-15_13:1:42.0	277.4
376	134	178	514	52	101	116	238	3	0	8	7-15_13:1:43.0	277.6
377	144	183	522	61	94	124	239	3	0	8	7-15_13:1:44.0	277.2
373	138	178	518	57	96	121	242	3	0	8	7-15_13:1:45.0	277.5
380	140	181	514	48	106	110	247	3	0	9	7-15_13:1:46.0	277.5
377	133	172	509	53	96	125	245	3	0	8	7-15_13:1:47.0	277.7
377	132	171	512	56	96	124	242	3	0	8	7-15_13:1:48.0	277.9
373	137	179	516	55	97	120	244	4	0	8	7-15_13:1:49.0	277.8
369	134	176	520	58	98	118	243	3	0	8	7-15_13:1:50.0	278.1
371	139	178	517	54	100	118	244	3	0	8	7-15_13:1:51.0	278.2
373	145	182	510	49	100	124	241	3	0	8	7-15_13:1:52.0	278.3
374	135	175	515	58	97	118	242	3	0	9	7-15_13:1:53.0	278
373	131	173	517	59	98	117	244	3	0	8	7-15_13:1:54.0	278.2
369	139	187	515	48	102	127	237	4	0	9	7-15_13:1:55.0	278.5
377	130	172	522	58	101	116	245	3	0	8	7-15_13:1:56.0	278.2
372	129	178	519	50	101	126	238	4	0	8	7-15_13:1:57.0	277.5
369	136	182	515	53	97	124	240	4	0	8	7-15_13:1:58.0	277.4
369	141	177	511	59	95	116	244	3	0	9	7-15_13:1:59.0	277.5
368	138	179	514	58	95	118	245	4	0	9	7-15_13:2:0.0	277.7
371	137	173	520	55	102	121	241	3	0	8	7-15_13:2:1.0	277.8
375	129	173	521	51	98	126	239	3	0	8	7-15_13:2:2.0	277.7
365	142	179	511	63	100	119	243	3	0	9	7-15_13:2:3.0	277.9
373	132	174	517	55	99	121	242	3	0	8	7-15_13:2:4.0	277.9
368	141	176	515	60	102	118	244	4	0	9	7-15_13:2:5.0	277.9
364	142	168	521	50	100	127	241	3	0	8	7-15_13:2:6.0	278.3
372	134	179	516	57	96	119	244	3	0	8	7-15_13:2:7.0	278.6
372	133	177	516	57	95	117	247	3	0	8	7-15_13:2:8.0	278.7
370	136	173	517	53	94	120	246	3	0	8	7-15_13:2:9.0	278.7
367	141	175	517	54	98	125	244	3	0	8	7-15_13:2:10.0	278.7
369	135	169	519	52	91	111	243	3	0	8	7-15_13:2:11.0	278.5
368	140	174	514	60	101	124	244	3	0	8	7-15_13:2:12.0	278.9
365	140	172	510	64	104	123	247	3	0	8	7-15_13:2:13.0	278.1
373	130	186	508	60	105	130	244	3	0	8	7-15_13:2:14.0	278.4
377	127	185	509	61	105	131	245	3	0	8	7-15_13:2:15.0	278.4
369	133	174	514	61	99	118	237	3	0	8	7-15_13:2:16.0	278.1
364	145	168	525	49	89	110	239	4	0	8	7-15_13:2:17.0	278
362	142	168	524	52	91	113	239	3	0	8	7-15_13:2:18.0	278
369	141	172	522	49	90	111	241	4	0	8	7-15_13:2:19.0	278.3
366	139	172	520	54	94	117	240	3	0	8	7-15_13:2:20.0	278.8
375	137	177	523	49	91	110	238	3	0	8	7-15_13:2:21.0	278.6
372	136	179	516	51	97	124	252	3	0	8	7-15_13:2:22.0	278.8
367	136	174	513	56	96	118	242	4	0	8	7-15_13:2:23.0	279.3
364	142	171	513	63	103	123	248	3	0	8	7-15_13:2:24.0	278.7
369	140	169	516	60	103	127	249	3	0	8	7-15_13:2:25.0	278.6
370	130	179	518	52	94	118	241	3	0	8	7-15_13:2:26.0	279.6
369	132	177	515	52	98	118	243	3	0	8	7-15_13:2:27.0	279.7
368	132	182	516	53	94	119	242	3	0	8	7-15_13:2:28.0	280.7
366	132	178	516	52	96	120	244	3	0	8	7-15_13:2:29.0	281.3
366	129	178	521	59	102	116	241	3	0	9	7-15_13:2:30.0	280.9
365	131	178	516	55	95	119	243	4	0	8	7-15_13:2:31.0	281
367	136	179	515	53	96	122	246	3	0	8	7-15_13:2:32.0	280.9
366	137	178	518	56	98	122	245	3	0	8	7-15_13:2:33.0	280.8
372	136	170	513	59	90	115	242	4	0	8	7-15_13:2:34.0	281.5
371	145	180	512	45	99	129	248	3	0	8	7-15_13:2:35.0	281.4
371	133	173	512	53	97	123	247	4	0	8	7-15_13:2:36.0	281.6
367	136	178	521	58	101	114	240	3	0	8	7-15_13:2:37.0	282
365	131	178	519	60	95	116	243	3	0	8	7-15_13:2:38.0	281.3
362	125	168	511	56	88	124	250	4	0	8	7-15_13:2:39.0	282
368	132	178	518	55	100	119	244	3	0	7	7-15_13:2:40.0	282.5
366	131	178	518	58	100	116	245	4	0	8	7-15_13:2:41.0	283
369	134	172	511	51	98	124	242	3	0	8	7-15_13:2:42.0	282.7
370	137	183	521	61	97	118	251	4	0	8	7-15_13:2:43.0	282.5
372	140	188	526	67	94	118	251	3	0	8	7-15_13:2:44.0	282.4
372	137	175	515	54	99	117	246	3	0	8	7-15_13:2:45.0	282
369	138	177	518	56	101	114	245	3	0	7	7-15_13:2:46.0	281.6
368	135	180	516	56	93	125	248	3	0	8	7-15_13:2:47.0	281.1
363	129	178	514	54	95	123	243	4	0	8	7-15_13:2:48.0	280.9
360	126	170	507	49	104	112	244	4	0	8	7-15_13:2:49.0	280.3
366	132	175	515	55	95	122	249	3	0	8	7-15_13:2:50.0	280.1
364	135	176	519	60	89	127	241	4	0	8	7-15_13:2:51.0	280.1
367	134	175	515	56	97	119	244	3	0	8	7-15_13:2:52.0	280.1
364	131	180	519	52	100	112	247	3	0	8	7-15_13:2:53.0	279.4
365	132	167	507	46	108	110	244	4	0	7	7-15_13:2:54.0	279.2
367	136	179	518	57	93	124	245	3	0	8	7-15_13:2:55.0	278.9
365	129	172	515	58	97	118	245	3	0	8	7-15_13:2:56.0	278.7
373	135	174	514	58	93	122	245	3	0	8	7-15_13:2:57.0	278.5
363	141	184	513	52	99	118	247	3	0	8	7-15_13:2:58.0	278.5
371	137	176	509	55	94	129	242	3	0	8	7-15_13:2:59.0	278.1
363	142	181	511	55	97	116	250	3	0	8	7-15_13:3:0.0	278
362	134	177	519	55	97	116	246	3	0	8	7-15_13:3:1.0	278.1
360	143	186	514	51	97	126	243	3	0	8	7-15_13:3:2.0	277.6
366	135	178	516	58	101	127	244	3	0	8	7-15_13:3:3.0	277.8
367	138	176	512	55	97	123	245	3	0	8	7-15_13:3:4.0	277.4
367	135	176	514	55	95	122	245	3	0	8	7-15_13:3:5.0	277.2
361	136	186	514	50	98	127	241	3	0	8	7-15_13:3:6.0	276.9
373	127	171	523	56	108	115	249	3	0	8	7-15_13:3:7.0	276.8
363	138	180	512	59	91	119	248	4	0	8	7-15_13:3:8.0	276.4
363	138	179	513	58	95	115	247	3	0	8	7-15_13:3:9.0	276.8
365	131	180	515	58	97	122	246	4	0	8	7-15_13:3:10.0	276.7
366	133	179	516	56	98	123	245	3	0	8	7-15_13:3:11.0	276.9
361	143	174	515	63	104	116	246	3	0	9	7-15_13:3:12.0	276.8
369	129	177	518	51	97	125	243	3	0	8	7-15_13:3:13.0	277.2
367	134	168	523	51	101	128	243	3	0	8	7-15_13:3:14.0	277.4
368	131	180	514	57	94	118	251	4	0	8	7-15_13:3:15.0	276.9
368	127	184	509	62	99	113	244	3	0	8	7-15_13:3:16.0	276.6
363	131	174	517	54	95	120	250	3	0	8	7-15_13:3:17.0	276.7
366	134	184	508	62	107	133	242	3	0	8	7-15_13:3:18.0	276.8
363	134	178	513	58	97	117	249	4	0	8	7-15_13:3:19.0	276.8
367	140	173	510	56	90	117	248	3	0	8	7-15_13:3:20.0	276.7
360	139	173	516	59	100	124	248	4	0	9	7-15_13:3:21.0	276.5
365	135	181	520	65	88	127	252	4	0	8	7-15_13:3:22.0	277.6
365	131	173	511	56	95	124	246	3	0	8	7-15_13:3:23.0	277.7
365	134	178	516	58	100	118	247	3	0	8	7-15_13:3:24.0	277.4
362	139	174	516	59	99	121	249	4	0	8	7-15_13:3:25.0	277.4
366	136	176	515	59	99	118	250	3	0	7	7-15_13:3:26.0	278.1
362	126	183	517	54	96	122	248	4	0	8	7-15_13:3:27.0	278.2
359	140	172	519	59	100	121	247	3	0	8	7-15_13:3:28.0	278.4
366	130	180	518	53	98	126	251	4	0	8	7-15_13:3:29.0	278.1
361	134	180	512	53	100	120	248	3	0	8	7-15_13:3:30.0	278.8
362	140	176	511	55	89	113	245	3	0	8	7-15_13:3:31.0	278.9
364	142	173	514	61	99	120	249	4	0	9	7-15_13:3:32.0	279.2
368	128	175	523	61	106	124	252	3	0	8	7-15_13:3:33.0	279.4
366	136	175	514	56	95	120	249	3	0	8	7-15_13:3:34.0	279.8
362	135	180	519	57	92	120	250	3	0	9	7-15_13:3:35.0	280
361	133	177	516	56	96	121	250	3	0	7	7-15_13:3:36.0	280.3
365	133	174	514	51	104	121	246	3	0	8	7-15_13:3:37.0	280.1
372	143	166	504	52	88	118	249	3	0	8	7-15_13:3:38.0	280.1
368	140	173	514	54	95	125	255	3	0	8	7-15_13:3:39.0	280.2
365	137	178	515	53	99	116	245	4	0	8	7-15_13:3:40.0	280.3
367	137	175	512	52	96	120	251	4	0	9	7-15_13:3:41.0	280.4
359	128	171	514	55	93	122	252	3	0	8	7-15_13:3:42.0	280.6
360	129	175	516	57	101	116	244	3	0	8	7-15_13:3:43.0	280.5
366	138	180	518	55	100	120	245	3	0	8	7-15_13:3:44.0	280.5
361	135	187	524	61	105	109	243	3	0	8	7-15_13:3:45.0	280.6
365	132	176	515	54	96	122	247	4	0	8	7-15_13:3:46.0	280.6
363	135	173	515	60	101	116	249	3	0	8	7-15_13:3:47.0	281
365	135	182	523	62	90	126	249	4	0	8	7-15_13:3:48.0	281.4
362	135	182	520	60	92	127	247	3	0	8	7-15_13:3:49.0	281.2
357	128	175	517	59	94	122	252	4	0	9	7-15_13:3:50.0	281.5
362	128	174	520	56	99	113	252	3	0	8	7-15_13:3:51.0	281.5
359	127	179	521	49	101	127	246	3	0	8	7-15_13:3:52.0	281.3
363	133	178	521	57	102	116	252	3	0	8	7-15_13:3:53.0	281.4
362	134	176	518	60	100	115	253	4	0	8	7-15_13:3:54.0	281.1
363	132	176	517	57	101	117	253	4	0	8	7-15_13:3:55.0	281.4
361	134	175	516	58	95	124	252	4	0	9	7-15_13:3:56.0	281
366	133	179	515	50	100	117	252	3	0	8	7-15_13:3:57.0	281.1
362	134	177	520	60	96	121	248	3	0	8	7-15_13:3:58.0	281.2
361	140	183	523	60	98	121	251	4	0	8	7-15_13:3:59.0	281.2
362	136	178	519	59	96	119	249	3	0	8	7-15_13:4:0.0	280.9
364	133	180	516	53	98	121	248	3	0	8	7-15_13:4:1.0	280.1
368	129	170	517	62	94	118	253	3	0	8	7-15_13:4:2.0	279.9
358	135	183	518	51	102	117	253	4	0	8	7-15_13:4:3.0	280.3
364	129	174	519	56	99	122	252	4	0	8	7-15_13:4:4.0	280.3
361	134	177	518	55	98	122	250	3	0	8	7-15_13:4:5.0	279.6
363	134	178	515	60	95	115	255	3	0	8	7-15_13:4:6.0	279.1
362	133	181	514	58	91	121	249	3	0	8	7-15_13:4:7.0	279.3
360	141	185	513	56	93	123	246	3	0	8	7-15_13:4:8.0	279
364	136	180	516	57	98	123	251	3	0	8	7-15_13:4:9.0	278.2
364	127	180	521	48	100	130	241	4	0	8	7-15_13:4:10.0	277.2
367	136	175	518	59	102	119	249	3	0	8	7-15_13:4:11.0	276.8
368	133	173	522	58	105	119	246	3	0	9	7-15_13:4:12.0	276.7
361	132	187	513	55	93	118	254	3	0	8	7-15_13:4:13.0	277.1
359	140	180	516	60	100	118	248	3	0	8	7-15_13:4:14.0	277.1
361	133	184	516	51	94	127	246	3	0	9	7-15_13:4:15.0	277.5
356	140	186	510	61	95	111	253	3	0	8	7-15_13:4:16.0	277.5
360	139	180	515	62	98	118	251	3	0	8	7-15_13:4:17.0	277.8
360	137	178	517	61	103	125	243	3	0	8	7-15_13:4:18.0	277.4
369	129	186	514	55	95	118	252	3	0	8	7-15_13:4:19.0	277.4
365	132	180	519	56	98	120	248	3	0	8	7-15_13:4:20.0	277.2
365	132	177	517	57	100	124	249	3	0	8	7-15_13:4:21.0	276.8
366	130	184	514	57	98	121	251	3	0	8	7-15_13:4:22.0	276.4
364	132	179	517	55	97	119	250	3	0	8	7-15_13:4:23.0	276.1
364	133	176	518	54	100	125	251	3	0	8	7-15_13:4:24.0	276.5
363	139	131	522	67	90	124	248	3	0	8	7-15_13:4:25.0	276.7
361	138	169	535	61	97	120	247	3	0	8	7-15_13:4:26.0	276.6
355	130	169	227	61	107	124	247	3	0	8	7-15_13:4:27.0	276.2
354	135	173	222	64	108	123	249	3	0	8	7-15_13:4:28.0	276.4
492	163	182	553	70	124	153	267	7	4	4	7-15_13:4:29.0	277.2
336	31	201	496	64	110	118	342	5	356	78	7-15_13:4:30.0	277
318	30	198	493	65	112	107	201	6	337	325	7-15_13:4:31.0	276.7
285	30	206	459	60	113	78	93	10	317	302	7-15_13:4:32.0	276.7
294	21	225	449	65	114	73	89	10	327	266	7-15_13:4:33.0	276.7
283	14	207	289	70	93	58	163	2	0	287	7-15_13:4:34.0	276.7
3	0	0	0	0	0	0	0	1	5	148	7-15_13:4:35.0	277.3
36	0	14	31	2	9	3	6	3	2	322	7-15_13:4:36.0	276.9
109	6	57	88	24	50	54	31	0	5	287	7-15_13:4:37.0	276.6
73	14	28	66	23	43	63	9	1	356	276	7-15_13:4:38.0	276.5
71	9	25	46	18	7	13	0	0	359	282	7-15_13:4:39.0	276.4
70	9	24	59	18	17	12	0	357	0	279	7-15_13:4:40.0	276.6
79	6	21	59	31	44	65	6	359	358	285	7-15_13:4:41.0	277
62	16	33	65	21	38	30	0	355	1	276	7-15_13:4:42.0	277.1
60	7	17	59	21	33	8	0	356	359	284	7-15_13:4:43.0	276.8
67	17	31	70	4	20	3	0	355	0	287	7-15_13:4:44.0	276.5
65	3	9	54	15	2	1	0	355	0	282	7-15_13:4:45.0	276.1
70	21	33	54	5	2	2	0	359	359	285	7-15_13:4:46.0	275.7
65	19	28	54	7	1	3	0	358	359	286	7-15_13:4:47.0	276.6
70	14	24	43	12	0	2	0	359	359	285	7-15_13:4:48.0	276.5
80	15	27	72	25	65	92	4	359	6	284	7-15_13:4:49.0	276.7
76	8	30	83	34	85	120	6	359	5	284	7-15_13:4:50.0	277.1
70	8	23	71	28	82	112	9	0	6	268	7-15_13:4:51.0	279
90	9	41	71	21	47	65	9	0	5	234	7-15_13:4:52.0	282.6
770	228	519	757	314	581	554	430	0	6	61	7-15_13:4:53.0	289.3
83	7	22	61	22	62	95	4	0	0	287	7-15_13:4:54.0	297.4
625	234	480	671	291	460	492	244	358	3	81	7-15_13:4:55.0	304.5
65	11	14	60	21	71	123	8	359	356	262	7-15_13:4:56.0	310.8
84	12	14	64	33	78	114	4	0	353	275	7-15_13:4:57.0	313.1
765	355	232	701	169	283	385	193	1	14	32	7-15_13:4:58.0	318
69	6	19	59	26	71	109	9	0	3	342	7-15_13:4:59.0	324.3
433	70	275	425	131	274	304	164	359	1	324	7-15_13:5:0.0	329.9
84	12	53	121	42	96	127	98	359	3	323	7-15_13:5:1.0	336.8
256	23	152	315	66	129	124	322	0	358	112	7-15_13:5:2.0	343.3
161	12	99	172	48	82	73	145	359	359	355	7-15_13:5:3.0	348.2
115	13	67	117	28	83	88	102	0	353	7	7-15_13:5:4.0	353.8
469	94	318	603	134	321	401	229	359	10	319	7-15_13:5:5.0	360.3
435	68	219	538	92	207	316	177	0	3	195	7-15_13:5:6.0	367.1
577	403	441	626	369	473	490	209	356	7	67	7-15_13:5:7.0	372.4
192	25	137	252	69	123	155	139	359	353	28	7-15_13:5:8.0	378.7
223	26	125	277	53	74	68	362	356	3	4	7-15_13:5:9.0	385.9
269	41	142	322	63	103	105	411	0	1	99	7-15_13:5:10.0	392.8
58	6	17	58	33	79	138	1	357	357	280	7-15_13:5:11.0	399.3
120	9	13	49	9	32	56	13	355	8	293	7-15_13:5:12.0	406.9
133	27	75	166	38	90	126	65	358	359	28	7-15_13:5:13.0	414.3
573	298	488	603	359	489	529	164	359	359	29	7-15_13:5:14.0	421.7
122	5	23	52	13	40	59	13	1	1	302	7-15_13:5:15.0	426.6
800	364	802	801	591	812	818	336	357	358	86	7-15_13:5:16.0	432
60	6	38	87	25	74	134	20	1	359	330	7-15_13:5:17.0	438.7
79	2	13	45	8	27	52	15	0	3	323	7-15_13:5:18.0	444.7
396	108	196	506	75	130	146	757	1	9	13	7-15_13:5:19.0	449
205	35	191	373	77	180	163	198	5	358	0	7-15_13:5:20.0	454.1
801	642	776	801	725	811	817	167	2	6	194	7-15_13:5:21.0	460.8
249	19	179	271	89	144	152	83	358	4	246	7-15_13:5:22.0	466.9
88	3	21	50	19	46	77	19	3	5	259	7-15_13:5:23.0	472
58	8	18	57	28	78	126	34	4	0	237	7-15_13:5:24.0	476.8
45	1	12	50	18	74	140	10	3	0	240	7-15_13:5:25.0	482
65	8	16	57	29	87	137	6	1	3	289	7-15_13:5:26.0	487.3
346	69	206	489	91	149	151	547	358	6	0	7-15_13:5:27.0	493.2
580	168	213	613	111	203	263	376	1	4	2	7-15_13:5:28.0	499.6
181	30	165	336	85	154	173	213	358	4	5	7-15_13:5:29.0	506.8
89	7	14	48	26	65	94	6	359	8	340	7-15_13:5:30.0	513.9
99	2	25	49	11	47	82	11	359	2	271	7-15_13:5:31.0	521.3
286	26	225	463	94	182	188	87	359	357	186	7-15_13:5:32.0	527.7
52	5	13	56	28	85	146	14	4	353	240	7-15_13:5:33.0	532.5
89	9	26	61	25	61	95	47	3	10	323	7-15_13:5:34.0	538.4
8	4	3	34	13	64	112	22	3	357	251	7-15_13:5:35.0	545.5
206	50	159	349	83	140	176	228	2	357	296	7-15_13:5:36.0	545.5
392	46	250	531	108	219	280	218	4	9	117	7-15_13:5:37.0	557.5
757	172	549	732	298	596	704	449	5	1	118	7-15_13:5:38.0	563.4
792	168	340	692	239	370	417	688	0	5	62	7-15_13:5:39.0	567.5
800	198	573	789	382	709	622	745	1	7	23	7-15_13:5:40.0	571.5
763	353	203	713	120	267	347	255	2	1	109	7-15_13:5:41.0	577
614	270	190	624	102	208	278	228	359	1	73	7-15_13:5:42.0	582.5
349	66	235	378	96	242	304	188	1	357	357	7-15_13:5:43.0	587.4
85	7	26	54	28	66	96	40	359	12	317	7-15_13:5:44.0	592.7
75	5	16	62	30	79	130	26	1	3	295	7-15_13:5:45.0	598.3
73	6	17	67	34	91	142	4	0	2	268	7-15_13:5:46.0	602.8
52	9	9	39	19	83	136	48	358	1	200	7-15_13:5:47.0	607.6
67	5	22	52	21	67	97	17	356	5	137	7-15_13:5:48.0	612.7
510	70	239	517	89	154	194	580	0	5	25	7-15_13:5:49.0	617.3
55	6	15	61	26	76	130	44	0	355	22	7-15_13:5:50.0	622.8
801	570	654	801	469	736	754	214	0	0	133	7-15_13:5:51.0	629.8
204	13	167	221	86	142	159	63	1	359	202	7-15_13:5:52.0	636
70	7	15	65	34	92	143	7	4	358	254	7-15_13:5:53.0	641.7
77	6	21	50	26	69	113	9	3	12	305	7-15_13:5:54.0	646.2
39	6	13	49	14	73	145	3	2	357	244	7-15_13:5:55.0	652
40	5	11	50	24	78	142	2	0	0	273	7-15_13:5:56.0	657.2
160	18	118	191	61	132	151	163	359	0	344	7-15_13:5:57.0	662.7
471	173	189	547	104	190	234	216	1	0	47	7-15_13:5:58.0	669
802	315	757	802	527	785	795	405	0	4	79	7-15_13:5:59.0	675.1
260	11	142	170	59	94	86	75	357	4	8	7-15_13:6:0.0	680.3
261	13	156	158	76	113	119	71	0	3	253	7-15_13:6:1.0	685.3
337	34	243	499	105	225	204	107	0	2	204	7-15_13:6:2.0	690.5
318	33	215	510	95	196	246	115	0	357	165	7-15_13:6:3.0	696.2
57	7	24	61	30	74	126	40	0	1	207	7-15_13:6:4.0	702.2
42	6	8	52	28	80	139	3	0	2	238	7-15_13:6:5.0	708.3
65	8	23	54	25	90	156	1	0	357	246	7-15_13:6:6.0	713.6
67	6	20	54	32	90	149	4	1	1	291	7-15_13:6:7.0	718.6
201	22	157	326	84	155	170	258	2	5	321	7-15_13:6:8.0	723.3
801	206	536	799	439	696	640	716	0	4	349	7-15_13:6:9.0	728.3
801	207	666	802	262	755	821	339	1	3	241	7-15_13:6:10.0	733.6
801	379	802	801	571	813	820	296	0	359	125	7-15_13:6:11.0	739.6
802	157	353	708	168	525	564	246	0	1	155	7-15_13:6:12.0	746.3
474	57	241	550	108	243	343	201	0	0	155	7-15_13:6:13.0	752.8
64	7	22	60	29	86	140	17	0	0	250	7-15_13:6:14.0	759.3
83	7	26	56	24	71	113	29	2	4	307	7-15_13:6:15.0	764.9
99	11	27	94	36	100	128	46	1	7	337	7-15_13:6:16.0	770.6
111	8	33	95	43	96	122	46	0	3	334	7-15_13:6:17.0	770.6
138	15	97	147	63	124	146	94	0	2	318	7-15_13:6:18.0	781.8
140	23	117	189	67	124	161	239	0	0	318	7-15_13:6:19.0	786.2
802	387	533	758	431	577	643	264	1	0	53	7-15_13:6:20.0	790.6
325	30	209	426	107	187	230	155	2	4	278	7-15_13:6:21.0	795.9
70	5	24	61	27	81	125	5	0	5	248	7-15_13:6:22.0	800.8
97	10	26	69	37	95	142	9	358	4	284	7-15_13:6:23.0	805.6
86	6	26	67	35	89	130	6	358	5	301	7-15_13:6:24.0	811.9
112	8	27	65	34	80	120	22	359	4	283	7-15_13:6:25.0	817.3
81	6	20	67	37	90	137	40	0	3	258	7-15_13:6:26.0	823.6
65	7	14	63	34	88	141	25	359	4	236	7-15_13:6:27.0	830.5
207	5	129	131	64	111	131	66	359	3	135	7-15_13:6:28.0	839.1
359	38	206	434	65	133	82	517	358	4	41	7-15_13:6:29.0	845.7
109	11	29	80	40	83	114	46	0	354	340	7-15_13:6:30.0	850.1
556	257	267	617	189	321	349	224	2	0	50	7-15_13:6:31.0	855.7
801	811	802	801	495	813	819	341	1	7	157	7-15_13:6:32.0	861.9
438	193	174	507	96	225	271	200	359	6	85	7-15_13:6:33.0	868
146	12	79	109	47	82	124	30	1	353	277	7-15_13:6:34.0	872.3
246	17	161	288	81	138	162	148	0	354	135	7-15_13:6:35.0	877.8
60	3	14	50	23	79	148	14	359	4	289	7-15_13:6:36.0	884.3
375	75	217	484	93	159	185	640	359	2	345	7-15_13:6:37.0	890.4
439	54	223	546	89	156	211	711	0	4	53	7-15_13:6:38.0	895.9
364	35	249	503	102	203	206	271	1	6	126	7-15_13:6:39.0	900.6
801	341	781	802	555	805	821	279	3	0	106	7-15_13:6:40.0	905.6
801	449	795	801	595	806	822	313	0	4	83	7-15_13:6:41.0	905.6
194	42	162	331	88	156	168	202	358	5	19	7-15_13:6:42.0	917.8
140	5	12	42	12	43	72	17	359	6	314	7-15_13:6:43.0	924.6
622	186	480	681	282	496	553	200	359	1	2	7-15_13:6:44.0	931.1
800	357	767	803	568	796	820	253	357	359	99	7-15_13:6:45.0	936.6
63	8	12	60	34	93	151	15	2	3	245	7-15_13:6:46.0	942.8
94	2	12	56	20	68	111	8	0	4	314	7-15_13:6:47.0	949
105	6	32	67	28	61	95	34	0	4	339	7-15_13:6:48.0	955.2
238	38	211	457	104	172	178	196	1	5	346	7-15_13:6:49.0	961.6
270	102	184	492	84	160	202	222	0	3	312	7-15_13:6:50.0	969.1
187	23	197	406	81	158	164	125	358	6	340	7-15_13:6:51.0	976.9
62	2	13	49	21	86	140	5	354	8	348	7-15_13:6:52.0	982.4
622	213	514	625	342	513	548	294	1	351	83	7-15_13:6:53.0	988
750	305	629	758	432	668	747	333	359	357	102	7-15_13:6:54.0	994.7
59	7	17	59	27	88	153	14	1	4	245	7-15_13:6:55.0	1001.2
88	6	17	51	27	71	119	20	0	3	314	7-15_13:6:56.0	1008.1
287	31	226	442	93	167	151	335	0	7	348	7-15_13:6:57.0	1014.9
256	37	238	429	90	185	175	281	1	3	334	7-15_13:6:58.0	1021.9
105	14	71	142	55	116	141	93	0	359	342	7-15_13:6:59.0	1028.6
157	27	136	219	73	146	167	260	359	0	359	7-15_13:7:0.0	1035.5
548	225	185	563	102	202	267	225	0	0	46	7-15_13:7:1.0	1042.5
801	640	764	802	700	809	818	199	0	359	106	7-15_13:7:2.0	1049.3
202	14	139	194	77	130	171	82	0	1	200	7-15_13:7:3.0	1055.9
30	2	12	43	25	67	130	2	1	359	214	7-15_13:7:4.0	1063.2
34	5	7	50	25	79	142	1	0	0	244	7-15_13:7:5.0	1070
26	4	9	43	16	70	133	3	0	357	248	7-15_13:7:6.0	1077.4
146	28	139	240	62	128	148	169	2	357	284	7-15_13:7:7.0	1084.5
758	277	621	754	408	656	720	328	5	2	249	7-15_13:7:8.0	1089.8
355	29	241	474	125	199	215	119	5	3	206	7-15_13:7:9.0	1096
326	45	201	528	100	191	273	114	1	358	315	7-15_13:7:10.0	1102.5
237	25	158	268	89	153	181	88	1	359	1	7-15_13:7:11.0	1108.2
108	8	26	61	36	92	146	9	0	3	279	7-15_13:7:12.0	1113.8
70	2	26	55	24	77	132	4	1	7	313	7-15_13:7:13.0	1119.2
57	2	20	54	26	86	156	1	0	4	296	7-15_13:7:14.0	1124.9
60	4	19	67	38	97	164	1	359	3	278	7-15_13:7:15.0	1130.9
57	4	17	61	33	91	159	3	359	3	246	7-15_13:7:16.0	1136.5
88	1	24	54	21	64	101	5	357	5	234	7-15_13:7:17.0	1142.4
759	319	505	744	364	575	647	268	1	1	91	7-15_13:7:18.0	1149.6
74	1	25	63	32	88	133	5	358	5	354	7-15_13:7:19.0	1156.3
99	4	27	56	27	63	95	9	0	2	261	7-15_13:7:20.0	1163.2
801	203	641	780	239	723	769	397	359	357	140	7-15_13:7:21.0	1169.2
151	8	98	135	59	112	174	79	0	357	258	7-15_13:7:22.0	1175.1
77	6	22	65	38	104	173	10	2	4	274	7-15_13:7:23.0	1180.6
72	13	12	50	31	78	129	2	1	3	303	7-15_13:7:24.0	1186.5
43	10	21	52	20	79	135	3	1	0	295	7-15_13:7:25.0	1191.8
71	5	36	89	31	86	143	34	0	359	317	7-15_13:7:26.0	1197.3
623	273	222	646	167	272	355	236	0	0	32	7-15_13:7:27.0	1203.8
801	472	800	800	811	811	821	231	0	1	128	7-15_13:7:28.0	1210.2
800	214	626	783	258	741	802	290	359	0	141	7-15_13:7:29.0	1216.9
368	44	221	555	108	210	326	214	0	0	158	7-15_13:7:30.0	1224.1
87	10	43	76	41	83	151	13	0	0	212	7-15_13:7:31.0	1230.8
29	4	8	48	18	76	142	4	1	359	228	7-15_13:7:32.0	1236.2
53	8	11	63	26	94	163	4	0	0	268	7-15_13:7:33.0	1241.9
149	10	87	171	53	126	162	139	2	4	320	7-15_13:7:34.0	1248.3
803	160	370	728	238	465	533	820	359	6	12	7-15_13:7:35.0	1254.2
800	213	679	802	402	785	756	337	0	3	23	7-15_13:7:36.0	1260.7
801	795	800	801	811	810	820	166	1	3	133	7-15_13:7:37.0	1268
801	583	801	802	810	809	820	220	0	2	135	7-15_13:7:38.0	1274.3
540	83	317	611	146	349	455	256	359	358	134	7-15_13:7:39.0	1279.2
55	6	20	60	33	89	141	12	2	4	221	7-15_13:7:40.0	1284.3
55	11	17	59	36	89	169	2	359	5	257	7-15_13:7:41.0	1289.5
33	2	10	58	24	72	150	2	0	6	228	7-15_13:7:42.0	1294.7
615	113	298	645	190	331	402	712	1	1	88	7-15_13:7:43.0	1299.2
647	237	194	598	112	217	257	233	3	0	54	7-15_13:7:44.0	1304.3
801	713	779	801	735	811	821	172	0	5	113	7-15_13:7:45.0	1309.8
801	594	801	801	799	811	819	202	357	4	134	7-15_13:7:46.0	1316.2
92	11	79	152	39	107	154	64	0	3	351	7-15_13:7:47.0	1322.6
101	11	9	52	28	68	103	13	359	359	303	7-15_13:7:48.0	1329.4
436	48	240	553	103	178	253	542	358	358	63	7-15_13:7:49.0	1336.2
669	95	295	643	145	278	520	369	0	0	110	7-15_13:7:50.0	1343
800	105	306	658	142	371	521	234	0	2	148	7-15_13:7:51.0	1350
800	507	801	801	803	810	820	223	359	6	117	7-15_13:7:52.0	1356.3
596	266	425	653	323	458	533	302	357	8	337	7-15_13:7:53.0	1362.1
215	12	123	222	63	107	118	166	2	353	112	7-15_13:7:54.0	1367.9
352	22	200	395	72	126	103	514	359	1	355	7-15_13:7:55.0	1373.5
241	31	154	288	64	111	114	221	0	354	16	7-15_13:7:56.0	1378.3
800	311	803	801	360	810	821	268	3	10	146	7-15_13:7:57.0	1384
802	809	801	801	696	809	820	84	0	5	125	7-15_13:7:58.0	1391.1
253	79	144	351	69	148	188	162	0	6	49	7-15_13:7:59.0	1397
108	7	23	56	26	77	122	10	0	353	268	7-15_13:8:0.0	1402.3
87	4	26	60	30	75	118	5	0	356	226	7-15_13:8:1.0	1407.7
47	10	10	55	29	72	143	10	0	7	283	7-15_13:8:2.0	1407.7
43	9	16	55	26	76	149	4	358	5	291	7-15_13:8:3.0	1420.5
244	28	145	285	70	152	199	188	1	0	64	7-15_13:8:4.0	1427
209	22	130	233	57	106	125	187	359	358	21	7-15_13:8:5.0	1434.3
116	5	12	40	16	41	64	13	358	1	5	7-15_13:8:6.0	1440.8
138	1	6	44	9	47	71	14	1	2	350	7-15_13:8:7.0	1446.7
67	6	17	58	38	94	149	3	4	4	332	7-15_13:8:8.0	1452.4
66	4	16	66	42	106	177	1	3	2	290	7-15_13:8:9.0	1459.1
53	4	18	59	26	89	164	1	0	4	272	7-15_13:8:10.0	1465.8
65	10	25	58	37	91	178	2	357	7	303	7-15_13:8:11.0	1471
79	5	22	60	29	85	129	4	1	4	219	7-15_13:8:12.0	1475.4
389	26	260	451	124	192	204	280	2	1	143	7-15_13:8:13.0	1480.4
338	33	252	498	109	220	233	239	0	4	146	7-15_13:8:14.0	1487.2
48	6	27	66	23	80	137	6	357	4	202	7-15_13:8:15.0	1493.3
597	170	475	651	315	494	554	270	359	5	135	7-15_13:8:16.0	1498.4
69	4	12	65	36	90	140	4	2	357	6	7-15_13:8:17.0	1504.3
94	8	23	70	43	96	153	7	0	2	333	7-15_13:8:18.0	1511.6
127	7	18	45	7	40	60	16	0	1	7	7-15_13:8:19.0	1518.2
265	13	135	138	62	112	134	63	3	358	114	7-15_13:8:20.0	1523.3
59	11	34	59	34	89	129	22	4	6	23	7-15_13:8:21.0	1529
161	11	95	107	70	110	157	33	1	5	128	7-15_13:8:22.0	1536.1
376	36	228	532	114	215	253	383	0	3	128	7-15_13:8:23.0	1541.8
800	187	466	782	352	664	642	822	1	4	78	7-15_13:8:24.0	1547
768	342	248	710	219	324	451	232	2	5	65	7-15_13:8:25.0	1551.6
152	22	111	204	66	136	170	184	1	2	28	7-15_13:8:26.0	1556.6
64	6	14	56	33	85	134	3	0	4	4	7-15_13:8:27.0	1562.1
43	2	8	43	28	83	139	3	359	5	338	7-15_13:8:28.0	1567.5
41	7	13	50	27	71	144	2	0	6	296	7-15_13:8:29.0	1573.7
35	7	2	41	19	97	156	0	0	3	235	7-15_13:8:30.0	1579.7
49	3	11	66	27	89	133	3	0	4	185	7-15_13:8:31.0	1585.9
331	19	222	354	106	184	206	174	2	5	160	7-15_13:8:32.0	1592.8
803	219	617	775	353	704	786	418	1	4	121	7-15_13:8:33.0	1599.7
555	213	233	617	153	242	321	248	359	3	50	7-15_13:8:34.0	1607.8
109	1	18	45	29	73	130	33	358	3	323	7-15_13:8:35.0	1614.8
169	18	94	159	74	116	162	69	357	5	219	7-15_13:8:36.0	1622
89	10	47	91	36	109	157	73	1	358	5	7-15_13:8:37.0	1630.5
673	248	475	682	311	499	562	293	0	0	279	7-15_13:8:38.0	1638.2
114	6	25	56	21	69	113	27	3	1	288	7-15_13:8:39.0	1644.1
584	104	390	653	189	408	524	362	0	354	103	7-15_13:8:40.0	1644.1
113	6	61	92	42	93	142	32	4	3	319	7-15_13:8:41.0	1656.6
61	9	12	64	36	99	172	4	357	1	271	7-15_13:8:42.0	1664.5
165	20	75	132	43	95	121	84	0	4	340	7-15_13:8:43.0	1671.5
531	130	222	592	114	198	245	387	3	4	25	7-15_13:8:44.0	1677
803	496	561	801	521	751	790	285	3	5	92	7-15_13:8:45.0	1677
199	23	182	343	77	171	180	127	0	4	59	7-15_13:8:46.0	1690.2
70	6	25	64	31	82	140	14	0	3	26	7-15_13:8:47.0	1696
93	7	29	70	37	98	156	18	1	6	313	7-15_13:8:48.0	1701
56	8	12	58	26	89	151	3	3	359	212	7-15_13:8:49.0	1705.9
44	6	13	54	28	80	150	2	1	4	238	7-15_13:8:50.0	1712.6
103	5	30	61	29	67	133	19	357	2	310	7-15_13:8:51.0	1719.5
343	49	208	408	91	151	154	452	0	4	5	7-15_13:8:52.0	1724.7
742	198	255	703	195	282	446	600	2	6	356	7-15_13:8:53.0	1731.4
171	19	156	293	72	161	159	201	1	359	77	7-15_13:8:54.0	1738
362	131	195	544	87	162	205	178	0	0	86	7-15_13:8:55.0	1744.7
185	8	108	193	65	118	158	52	1	1	231	7-15_13:8:56.0	1750.6
73	5	21	63	37	99	161	9	3	10	265	7-15_13:8:57.0	1756.2
101	8	49	76	37	93	150	18	1	358	241	7-15_13:8:58.0	1763
158	10	98	118	54	115	172	38	0	1	120	7-15_13:8:59.0	1763
54	8	15	53	25	93	169	5	359	359	254	7-15_13:9:0.0	1776
223	31	147	330	83	156	187	216	2	3	336	7-15_13:9:1.0	1782.9
799	453	706	800	548	769	821	308	2	5	324	7-15_13:9:2.0	1790
801	486	795	801	630	812	821	268	0	4	265	7-15_13:9:3.0	1797.1
760	356	229	715	165	311	405	228	0	359	82	7-15_13:9:4.0	1804.3
195	17	117	195	74	139	180	56	2	1	256	7-15_13:9:5.0	1810.9
95	3	22	63	47	109	175	9	0	10	279	7-15_13:9:6.0	1817.7
46	2	25	44	11	69	133	0	0	0	234	7-15_13:9:7.0	1824.4
26	5	8	47	24	75	139	1	0	357	211	7-15_13:9:8.0	1830.8
142	13	71	149	47	108	155	101	2	4	315	7-15_13:9:9.0	1836
395	121	195	559	104	196	233	662	1	6	348	7-15_13:9:10.0	1841.9
173	14	132	245	77	152	174	240	1	0	328	7-15_13:9:11.0	1847.9
190	33	159	338	73	152	193	171	0	359	45	7-15_13:9:12.0	1847.9
802	448	801	801	653	810	819	248	358	4	145	7-15_13:9:13.0	1861.8
378	48	240	515	115	214	278	215	0	359	161	7-15_13:9:14.0	1868.1
72	1	23	60	38	98	154	8	1	3	228	7-15_13:9:15.0	1873.9
33	5	16	47	24	72	146	2	358	8	265	7-15_13:9:16.0	1880.4
81	4	35	76	36	91	148	12	359	3	338	7-15_13:9:17.0	1886
554	147	219	592	109	199	251	465	3	358	48	7-15_13:9:18.0	1891.9
751	351	262	699	212	365	453	247	4	2	69	7-15_13:9:19.0	1897
801	509	800	800	760	812	820	334	0	6	132	7-15_13:9:20.0	1903.2
765	584	465	763	409	579	627	158	358	6	94	7-15_13:9:21.0	1910.1
67	8	26	71	28	100	149	5	1	2	346	7-15_13:9:22.0	1916.3
97	6	15	64	23	76	120	37	1	358	247	7-15_13:9:23.0	1921.9
71	9	16	59	17	72	120	16	0	0	159	7-15_13:9:24.0	1927.3
38	9	13	50	26	82	143	10	1	6	289	7-15_13:9:25.0	1927.3
30	2	12	56	14	64	133	1	0	8	208	7-15_13:9:26.0	1938.3
789	340	604	772	455	644	707	291	3	1	88	7-15_13:9:27.0	1944.4
103	3	20	57	31	68	116	45	0	358	12	7-15_13:9:28.0	1950.3
88	13	24	64	38	72	143	10	1	1	352	7-15_13:9:29.0	1955.7
65	11	31	83	43	90	158	47	1	6	357	7-15_13:9:30.0	1961.5
49	4	20	58	25	84	146	20	0	6	340	7-15_13:9:31.0	1967.2
59	8	20	62	34	90	179	5	1	6	277	7-15_13:9:32.0	1973.2
61	7	13	58	33	98	155	3	1	4	217	7-15_13:9:33.0	1977.4
370	17	241	375	112	182	195	248	2	0	124	7-15_13:9:34.0	1982.4
363	25	243	450	121	215	235	223	1	4	151	7-15_13:9:35.0	1988.2
231	14	145	163	80	139	183	57	359	5	195	7-15_13:9:36.0	1995.2
368	42	230	524	113	204	264	132	358	3	275	7-15_13:9:37.0	2002.6
801	586	716	801	699	794	813	206	359	3	105	7-15_13:9:38.0	2010.5
83	6	32	62	33	91	144	5	1	2	335	7-15_13:9:39.0	2016.9
55	3	25	68	39	102	161	7	359	358	229	7-15_13:9:40.0	2023.3
35	4	19	48	21	88	157	6	0	0	213	7-15_13:9:41.0	2030.2
31	4	13	50	23	75	139	2	359	2	260	7-15_13:9:42.0	2036.3
172	24	124	263	72	141	177	178	1	357	327	7-15_13:9:43.0	2041.5
802	164	467	735	218	574	682	293	4	8	205	7-15_13:9:44.0	2046.4
799	266	686	802	314	781	823	286	0	3	173	7-15_13:9:45.0	2053.1
801	674	801	801	710	809	819	171	359	0	99	7-15_13:9:46.0	2059.7
331	36	211	412	108	195	276	169	0	359	106	7-15_13:9:47.0	2066.2
74	10	19	75	40	109	181	2	0	3	257	7-15_13:9:48.0	2073.1
100	4	30	52	19	70	115	6	357	3	336	7-15_13:9:49.0	2080
358	63	197	485	101	163	174	309	359	3	24	7-15_13:9:50.0	2080
386	63	205	469	83	154	163	539	358	6	11	7-15_13:9:51.0	2093.7
27	3	14	39	23	74	147	5	0	357	267	7-15_13:9:52.0	2100.5
99	7	63	125	39	109	161	100	0	356	345	7-15_13:9:53.0	2106.9
580	132	401	641	210	432	494	198	1	3	234	7-15_13:9:54.0	2113.3
72	5	25	55	30	83	133	16	2	5	248	7-15_13:9:55.0	2113.3
46	1	24	70	37	78	144	17	3	2	239	7-15_13:9:56.0	2125.7
41	5	10	51	23	83	153	3	3	359	227	7-15_13:9:57.0	2131.6
102	7	26	62	33	102	172	8	0	5	295	7-15_13:9:58.0	2136.2
74	6	17	54	26	90	157	4	1	5	312	7-15_13:9:59.0	2141.6
61	9	6	61	35	85	161	0	0	0	284	7-15_13:10:0.0	2141.6
59	4	16	61	33	98	176	2	359	0	300	7-15_13:10:1.0	2151.6
50	3	20	51	23	84	156	1	359	1	327	7-15_13:10:2.0	2157.2
132	5	104	137	61	135	172	159	0	2	1	7-15_13:10:3.0	2163.3
244	46	200	464	93	180	201	146	359	4	37	7-15_13:10:4.0	2169.9
785	320	213	690	146	264	369	245	359	5	49	7-15_13:10:5.0	2169.9
549	84	343	595	179	349	415	397	359	358	74	7-15_13:10:6.0	2183.3
47	7	6	68	37	101	167	1	0	5	226	7-15_13:10:7.0	2190
87	16	25	74	34	104	174	6	358	6	272	7-15_13:10:8.0	2196.6
634	261	520	686	392	532	576	204	0	2	57	7-15_13:10:9.0	2203.4
184	16	92	146	42	102	93	200	359	4	16	7-15_13:10:10.0	2203.4
84	5	27	57	32	88	147	13	3	1	325	7-15_13:10:11.0	2212.9
65	9	14	68	30	100	181	25	2	357	279	7-15_13:10:12.0	2218.7
61	3	41	76	27	86	132	53	0	3	284	7-15_13:10:13.0	2225.7
801	291	676	801	529	757	810	534	358	4	312	7-15_13:10:14.0	2232.5
508	76	253	606	121	226	401	429	359	358	26	7-15_13:10:15.0	2232.5
372	32	218	448	119	209	255	283	3	0	140	7-15_13:10:16.0	2242.8
29	3	10	43	27	77	144	3	1	6	208	7-15_13:10:17.0	2249.6
37	7	9	55	27	82	144	1	358	3	232	7-15_13:10:18.0	2256.4
221	2	128	189	79	133	175	77	358	4	201	7-15_13:10:19.0	2262.9
319	112	127	297	108	199	271	118	2	0	36	7-15_13:10:20.0	2262.9
133	3	21	49	24	65	106	14	358	359	288	7-15_13:10:21.0	2277.2
108	3	13	55	19	59	102	10	359	357	275	7-15_13:10:22.0	2283.2
36	2	2	61	19	71	148	3	2	5	235	7-15_13:10:23.0	2290.6
36	3	14	43	20	71	132	5	359	4	270	7-15_13:10:24.0	2298
38	7	22	38	31	84	140	8	355	7	251	7-15_13:10:25.0	2298
294	63	117	275	73	128	208	164	3	350	24	7-15_13:10:26.0	2309.4
156	8	30	52	25	61	113	29	358	355	322	7-15_13:10:27.0	2312.7
544	274	278	612	220	388	433	230	0	7	57	7-15_13:10:28.0	2317
556	213	251	618	196	304	402	261	358	4	30	7-15_13:10:29.0	2322.7
50	6	20	56	30	94	176	23	1	3	284	7-15_13:10:30.0	2329.3
89	4	16	52	33	85	119	21	359	3	132	7-15_13:10:31.0	2336
655	113	247	618	124	228	324	712	359	0	24	7-15_13:10:32.0	2336
308	27	208	407	94	171	197	421	358	357	8	7-15_13:10:33.0	2348.1
624	123	455	658	244	489	578	323	2	5	87	7-15_13:10:34.0	2354.2
336	21	235	447	102	179	199	157	358	4	318	7-15_13:10:35.0	2362
664	430	526	719	480	566	607	216	0	6	88	7-15_13:10:36.0	2369.1
116	10	33	71	36	104	158	11	0	353	298	7-15_13:10:37.0	2369.1
99	7	29	77	39	114	174	9	1	357	318	7-15_13:10:38.0	2380.1
70	9	47	99	27	100	135	64	359	7	291	7-15_13:10:39.0	2385.3
42	8	21	57	18	84	140	10	357	5	306	7-15_13:10:40.0	2390.3
217	16	129	207	66	134	165	98	1	359	55	7-15_13:10:41.0	2395.6
803	186	304	761	260	338	555	815	0	358	56	7-15_13:10:42.0	2402.7
802	258	711	801	561	812	817	691	0	3	84	7-15_13:10:43.0	2409.2
801	183	581	769	330	702	809	348	359	3	112	7-15_13:10:44.0	2409.2
800	296	688	785	476	769	809	313	359	6	122	7-15_13:10:45.0	2420.8
417	155	182	532	92	201	248	200	2	7	61	7-15_13:10:46.0	2425.6
66	8	15	61	32	108	178	45	2	0	315	7-15_13:10:47.0	2432.4
114	8	22	54	32	82	123	34	357	1	285	7-15_13:10:48.0	2439.4
435	29	252	475	104	185	191	378	358	2	58	7-15_13:10:49.0	2447.7
447	53	237	590	117	222	310	575	0	2	93	7-15_13:10:50.0	2455.2
805	158	274	670	151	257	403	731	358	1	52	7-15_13:10:51.0	2455.2
315	65	218	532	105	186	223	223	0	0	31	7-15_13:10:52.0	2470.8
173	27	136	225	82	164	176	279	359	1	19	7-15_13:10:53.0	2478.9
74	14	13	56	29	99	149	51	359	5	353	7-15_13:10:54.0	2487.2
78	9	18	65	33	109	196	42	359	4	290	7-15_13:10:55.0	2494.8
47	5	17	58	30	87	162	17	358	3	205	7-15_13:10:56.0	2502.9
62	7	17	57	30	92	148	32	357	8	315	7-15_13:10:57.0	2509.2
764	213	314	752	280	365	567	673	4	359	76	7-15_13:10:58.0	2509.2
802	648	783	802	750	812	821	204	2	7	112	7-15_13:10:59.0	2520.1
261	80	197	473	93	198	221	146	2	4	67	7-15_13:11:0.0	2526.2
54	9	9	56	28	76	150	6	1	5	12	7-15_13:11:1.0	2532.1
67	9	18	64	36	100	184	2	2	4	272	7-15_13:11:2.0	2538.4
79	10	21	57	28	90	141	2	1	1	145	7-15_13:11:3.0	2545.3
55	13	4	47	23	74	147	0	2	8	278	7-15_13:11:4.0	2551.5
266	11	170	283	88	157	204	154	2	6	109	7-15_13:11:5.0	2551.5
803	220	511	802	491	775	759	823	1	0	72	7-15_13:11:6.0	2564.6
441	163	203	557	108	201	238	263	1	0	49	7-15_13:11:7.0	2570
802	521	489	802	510	776	820	208	0	6	81	7-15_13:11:8.0	2574.9
302	95	188	446	104	185	224	256	0	5	40	7-15_13:11:9.0	2579.8
76	4	23	73	30	95	173	2	2	3	337	7-15_13:11:10.0	2584.9
71	13	29	71	43	109	191	2	0	3	281	7-15_13:11:11.0	2590.4
66	3	17	70	29	97	162	3	358	2	248	7-15_13:11:12.0	2597.1
415	17	221	388	88	159	156	412	359	4	53	7-15_13:11:13.0	2603.8
423	99	212	551	114	207	273	587	359	359	357	7-15_13:11:14.0	2603.8
401	99	215	519	116	208	239	276	0	356	23	7-15_13:11:15.0	2615.5
464	69	237	472	120	271	410	203	1	5	45	7-15_13:11:16.0	2622.5
43	5	20	50	27	73	138	5	358	2	217	7-15_13:11:17.0	2629.9
62	9	19	60	33	92	156	4	358	3	245	7-15_13:11:18.0	2635.2
100	5	22	59	36	91	165	10	2	0	326	7-15_13:11:19.0	2640.9
99	14	73	129	44	112	152	183	1	8	296	7-15_13:11:20.0	2648.2
34	6	8	53	21	76	158	0	0	3	225	7-15_13:11:21.0	2648.2
54	9	14	48	22	91	175	2	0	7	207	7-15_13:11:22.0	2662.3
382	41	219	395	113	191	269	312	3	2	136	7-15_13:11:23.0	2667.8
802	422	757	801	656	807	822	411	3	0	88	7-15_13:11:24.0	2674.5
803	222	647	803	275	788	822	337	359	7	137	7-15_13:11:25.0	2681.1
802	596	587	790	567	685	743	208	0	8	97	7-15_13:11:26.0	2687
91	6	28	65	35	94	151	4	3	359	0	7-15_13:11:27.0	2692
97	14	27	77	48	121	189	8	2	359	291	7-15_13:11:28.0	2697.6
66	6	17	74	40	109	194	4	0	4	286	7-15_13:11:29.0	2703.2
43	7	11	45	19	82	156	2	358	4	300	7-15_13:11:30.0	2703.2
58	9	12	64	36	95	173	2	359	2	246	7-15_13:11:31.0	2717.1
320	20	196	325	115	189	225	239	0	4	143	7-15_13:11:32.0	2723.2
590	116	232	596	117	202	280	642	359	359	46	7-15_13:11:33.0	2729.9
174	11	57	113	39	93	106	154	0	358	17	7-15_13:11:34.0	2737.5
213	32	177	301	86	186	188	130	3	5	47	7-15_13:11:35.0	2742.5
86	20	39	110	45	109	161	100	1	6	34	7-15_13:11:36.0	2748
75	4	17	69	46	116	195	32	3	1	307	7-15_13:11:37.0	2753.8
75	4	22	69	31	106	171	24	1	2	212	7-15_13:11:38.0	2759.3
33	2	11	49	20	73	141	0	0	6	227	7-15_13:11:39.0	2764.8
46	11	2	51	27	80	148	1	358	7	215	7-15_13:11:40.0	2770.8
789	227	444	773	372	589	720	606	4	359	78	7-15_13:11:41.0	2770.8
200	12	113	196	72	145	165	219	359	359	5	7-15_13:11:42.0	2781.1
131	13	61	109	42	108	142	99	0	0	9	7-15_13:11:43.0	2785.9
467	157	217	571	104	215	261	228	0	3	46	7-15_13:11:44.0	2791
803	419	548	763	457	634	688	268	358	6	68	7-15_13:11:45.0	2797.1
102	18	70	127	38	113	166	178	0	3	357	7-15_13:11:46.0	2802.2
70	9	25	61	42	110	192	1	0	3	271	7-15_13:11:47.0	2809
234	11	97	156	44	97	116	70	358	4	14	7-15_13:11:48.0	2815.8
194	41	132	288	71	154	204	176	357	2	350	7-15_13:11:49.0	2822.5
334	120	294	324	203	330	382	108	1	358	325	7-15_13:11:50.0	2829.7
156	4	20	49	25	60	109	23	359	1	328	7-15_13:11:51.0	2836.7
720	176	456	717	307	529	643	526	358	4	103	7-15_13:11:52.0	2841.2
65	5	24	59	29	94	162	2	359	353	336	7-15_13:11:53.0	2847.1
62	3	24	63	29	98	171	3	359	353	95	7-15_13:11:54.0	2854.9
667	137	374	690	260	473	579	485	0	1	312	7-15_13:11:55.0	2862.4
171	11	71	98	51	93	140	40	3	8	242	7-15_13:11:56.0	2867.9
388	46	225	564	105	222	319	183	4	0	176	7-15_13:11:57.0	2874.5
281	9	190	334	104	164	191	137	3	1	237	7-15_13:11:58.0	2882
121	5	36	75	40	108	178	57	0	2	274	7-15_13:11:59.0	2888.3
107	10	16	67	27	87	144	42	0	9	328	7-15_13:12:0.0	2893.3
57	11	10	64	30	96	176	49	1	2	282	7-15_13:12:1.0	2893.3
45	5	10	55	26	85	165	45	0	0	217	7-15_13:12:2.0	2907.7
50	5	13	64	20	81	157	47	358	0	291	7-15_13:12:3.0	2907.7
282	49	214	446	106	178	229	306	0	0	335	7-15_13:12:4.0	2920.7
800	539	646	801	637	763	809	375	3	359	111	7-15_13:12:5.0	2927.1
120	2	39	77	40	94	148	52	359	5	252	7-15_13:12:6.0	2933.8
150	6	26	60	27	74	132	50	359	5	286	7-15_13:12:7.0	2938.6
50	10	11	59	26	89	164	48	2	0	240	7-15_13:12:8.0	2943.1
44	3	12	56	24	84	153	44	3	1	244	7-15_13:12:9.0	2949.8
124	5	39	83	33	82	145	60	0	3	323	7-15_13:12:10.0	2957.5
437	77	220	522	98	171	210	658	0	5	13	7-15_13:12:11.0	2963.2
741	190	286	705	262	367	499	745	1	9	7	7-15_13:12:12.0	2968.6
510	215	205	590	109	211	292	262	2	0	52	7-15_13:12:13.0	2974.6
290	93	193	520	85	171	213	213	358	0	42	7-15_13:12:14.0	2981
801	429	569	764	512	646	696	384	359	0	76	7-15_13:12:15.0	2985.8
130	8	82	130	54	117	180	88	2	3	218	7-15_13:12:16.0	2993.1
89	10	27	79	51	118	192	59	0	6	281	7-15_13:12:17.0	3000.2
125	6	31	59	43	96	170	57	357	3	304	7-15_13:12:18.0	3007.3
135	3	19	49	29	68	131	46	0	4	320	7-15_13:12:19.0	3013.2
300	46	197	439	114	189	214	381	2	9	344	7-15_13:12:20.0	3018.9
33	3	9	47	16	71	137	12	0	359	284	7-15_13:12:21.0	3025.7
48	2	6	48	27	77	156	7	357	0	327	7-15_13:12:22.0	3032.8
386	154	199	483	131	237	286	254	0	357	49	7-15_13:12:23.0	3039
101	8	30	68	44	88	161	22	0	7	253	7-15_13:12:24.0	3045.7
