IR940	IR830	RED	YELLOW	GREEN	BLUE	VIOLET400	UV351	Pitch	Roll	Heading	GPSTime	Altitude				
396	450	169	285	31	126	22	155	355	59	71	6-26_15:25:35.0	0				
371	436	163	258	14	109	13	154	356	65	70	6-26_15:25:36.0	0				
361	447	133	266	22	105	9	152	356	64	69	6-26_15:25:37.0	0				
273	444	124	248	48	84	17	144	359	59	63	6-26_15:25:38.0	0				
441	357	154	232	52	81	36	256	359	11	45	6-26_15:25:39.0	0				
461	396	168	219	33	89	38	306	358	359	34	6-26_15:25:40.0	0				
430	418	164	255	51	92	51	339	357	358	39	6-26_15:25:41.0	0				
477	418	195	268	58	112	41	443	355	357	50	6-26_15:25:42.0	0				
396	466	173	301	61	117	34	208	353	37	62	6-26_15:25:43.0	0				
369	439	160	267	54	95	41	138	355	48	62	6-26_15:25:44.0	0				
352	461	162	245	39	103	30	179	357	48	61	6-26_15:25:45.0	0				
376	463	116	285	13	120	13	135	352	68	63	6-26_15:25:46.0	0				
350	443	101	269	15	107	12	140	355	67	67	6-26_15:25:47.0	0				
361	432	133	262	22	97	14	134	355	63	71	6-26_15:25:48.0	0				
347	431	113	262	12	105	9	135	356	66	68	6-26_15:25:49.0	0				
395	459	163	278	31	100	18	129	353	62	66	6-26_15:25:50.0	0				
440	439	167	213	52	85	47	167	352	57	69	6-26_15:25:51.0	0				
360	305	165	193	69	104	98	217	355	54	65	6-26_15:25:52.0	0				
396	305	182	179	77	99	128	205	354	37	58	6-26_15:25:53.0	0				
415	353	187	188	51	98	40	262	358	20	50	6-26_15:25:54.0	0				
495	356	169	186	32	133	32	296	359	15	47	6-26_15:25:55.0	0				
488	359	163	189	32	122	44	307	358	19	49	6-26_15:25:56.0	0				
458	363	165	195	34	128	36	348	358	24	51	6-26_15:25:57.0	0				
460	402	170	234	54	121	42	438	357	35	55	6-26_15:25:58.0	0				
454	439	164	258	53	106	23	277	356	43	60	6-26_15:25:59.0	0				
443	410	172	273	50	145	15	205	355	49	63	6-26_15:26:0.0	0				
444	414	205	295	55	155	20	222	354	43	64	6-26_15:26:1.0	0				
443	400	197	279	56	133	29	234	355	40	62	6-26_15:26:2.0	0				
462	382	179	255	43	132	49	427	355	15	51	6-26_15:26:3.0	0				
489	308	151	172	51	80	20	363	0	350	20	6-26_15:26:4.0	0				
471	300	175	188	37	122	38	358	1	348	25	6-26_15:26:5.0	0				
481	325	167	178	53	134	29	306	0	357	36	6-26_15:26:6.0	0				
427	317	165	208	29	127	35	238	0	9	39	6-26_15:26:7.0	0				
407	309	151	207	36	122	29	209	1	13	40	6-26_15:26:8.0	0				
412	313	169	215	40	124	32	233	0	13	45	6-26_15:26:9.0	0				
426	308	156	169	35	118	27	203	3	2	36	6-26_15:26:10.0	0				
511	482	188	224	45	136	46	372	349	5	32	6-26_15:26:11.0	0				
498	488	184	235	39	134	44	402	349	8	36	6-26_15:26:12.0	0				
507	396	188	199	30	121	45	301	353	8	33	6-26_15:26:13.0	0				
475	386	181	203	35	138	29	255	355	10	26	6-26_15:26:14.0	0				
442	383	152	232	30	123	35	244	356	19	32	6-26_15:26:15.0	0				
462	390	159	235	41	134	31	243	355	14	34	6-26_15:26:16.0	0				
388	326	131	204	31	112	25	166	0	13	35	6-26_15:26:17.0	0				
431	345	173	213	31	135	36	244	357	14	40	6-26_15:26:18.0	0				
371	320	192	238	53	149	49	244	357	31	67	6-26_15:26:19.0	0				
311	213	115	134	25	78	25	141	7	16	38	6-26_15:26:20.0	0				
375	276	183	176	31	95	19	216	1	13	39	6-26_15:26:21.0	0				
274	310	94	180	38	68	37	182	2	20	40	6-26_15:26:22.0	0				
349	288	172	194	76	111	106	299	359	22	50	6-26_15:26:23.0	0				
328	248	154	182	72	130	127	323	357	25	51	6-26_15:26:24.0	0				
293	242	153	188	79	136	132	391	356	26	52	6-26_15:26:25.0	0				
312	243	155	189	74	141	145	358	353	27	53	6-26_15:26:26.0	0				
280	234	117	165	71	115	108	298	357	28	53	6-26_15:26:27.0	0				
306	283	113	175	70	118	108	498	356	26	54	6-26_15:26:28.0	0				
409	272	234	146	54	99	110	179	353	24	58	6-26_15:26:29.0	0				
424	325	207	173	68	45	97	153	348	20	64	6-26_15:26:30.0	0				
486	419	163	113	49	42	124	149	343	15	74	6-26_15:26:31.0	0				
303	360	84	148	71	96	252	153	333	36	100	6-26_15:26:32.0	0				
259	296	101	182	70	135	204	130	329	38	105	6-26_15:26:33.0	0				
212	276	118	184	102	143	240	144	323	37	116	6-26_15:26:34.0	0				
92	94	21	35	32	23	120	40	314	8	151	6-26_15:26:35.0	0				
91	151	17	16	13	14	8	56	315	358	173	6-26_15:26:36.0	0				
192	332	39	88	12	27	9	86	322	341	206	6-26_15:26:37.0	0				
207	343	60	146	15	63	13	85	324	350	208	6-26_15:26:38.0	0				
209	332	55	132	21	57	21	80	328	347	213	6-26_15:26:39.0	0				
208	310	60	125	23	44	15	117	331	336	222	6-26_15:26:40.0	0				
206	305	59	144	15	46	24	101	331	335	224	6-26_15:26:41.0	0				
333	289	140	196	89	150	224	128	347	328	235	6-26_15:26:42.0	0				
309	173	56	96	25	37	58	104	11	332	254	6-26_15:26:43.0	0				
327	143	34	75	18	18	22	105	28	312	271	6-26_15:26:44.0	0				
317	140	47	57	23	18	24	112	34	310	270	6-26_15:26:45.0	0				
222	79	26	33	5	12	6	93	71	341	300	6-26_15:26:46.0	0				
232	97	26	33	10	11	9	84	90	6	11	6-26_15:26:47.0	0				
100	60	16	17	2	14	2	34	160	125	97	6-26_15:26:48.0	0				
117	122	11	25	10	12	4	49	284	113	92	6-26_15:26:49.0	0				
99	94	7	24	9	6	6	38	185	108	98	6-26_15:26:50.0	0				
59	18	3	6	7	9	3	18	186	108	95	6-26_15:26:51.0	0				
74	79	13	20	4	14	1	7	183	105	98	6-26_15:26:52.0	0				
61	49	4	17	9	4	4	10	185	107	96	6-26_15:26:53.0	0				
108	102	13	34	8	13	3	17	185	109	97	6-26_15:26:54.0	0				
136	141	27	47	6	11	8	36	194	116	92	6-26_15:26:55.0	0				
200	161	35	74	10	14	13	62	194	129	79	6-26_15:26:56.0	0				
207	87	19	37	10	8	10	85	64	316	294	6-26_15:26:57.0	0				
239	125	22	46	12	8	9	80	68	2	339	6-26_15:26:58.0	0				
251	136	33	42	8	17	1	78	64	19	350	6-26_15:26:59.0	0				
224	122	22	42	13	5	8	71	71	45	12	6-26_15:27:0.0	0				
219	88	19	34	9	9	8	64	76	13	349	6-26_15:27:1.0	0				
235	43	31	40	5	12	10	64	67	19	4	6-26_15:27:2.0	0				
274	161	35	64	14	14	12	95	51	9	356	6-26_15:27:3.0	0				
242	206	75	122	26	38	60	130	2	352	344	6-26_15:27:4.0	0				
159	207	74	126	35	65	93	116	0	33	309	6-26_15:27:5.0	0				
295	216	59	107	31	47	52	120	6	20	325	6-26_15:27:6.0	0				
310	184	52	94	21	30	43	121	19	28	308	6-26_15:27:7.0	0				
315	177	55	90	27	45	37	120	11	13	238	6-26_15:27:8.0	0				
316	175	49	82	19	30	30	105	24	25	226	6-26_15:27:9.0	0				
308	153	41	65	15	24	17	96	32	35	249	6-26_15:27:10.0	0				
279	170	48	75	25	32	19	99	22	33	261	6-26_15:27:11.0	0				
261	196	57	94	39	61	39	105	12	14	220	6-26_15:27:12.0	0				
268	112	38	42	1	11	21	83	44	0	17	6-26_15:27:13.0	0				
232	95	25	32	5	9	17	71	55	0	46	6-26_15:27:14.0	0				
323	131	40	58	11	8	14	110	53	2	42	6-26_15:27:15.0	0				
303	153	45	77	20	20	8	112	49	1	48	6-26_15:27:16.0	0				
286	133	40	62	18	20	8	94	49	1	47	6-26_15:27:17.0	0				
232	107	39	45	0	2	20	100	49	0	44	6-26_15:27:18.0	0				
262	150	31	59	14	25	19	98	47	0	57	6-26_15:27:19.0	0				
213	164	57	77	19	24	21	84	38	0	310	6-26_15:27:20.0	0				
262	247	66	108	26	45	59	115	8	11	76	6-26_15:27:21.0	0				
243	148	49	77	26	35	17	95	33	8	40	6-26_15:27:22.0	0				
224	168	56	82	27	36	20	96	41	5	75	6-26_15:27:23.0	0				
245	87	34	43	13	8	5	61	42	7	34	6-26_15:27:24.0	0				
206	83	12	26	10	11	9	56	47	8	21	6-26_15:27:25.0	0				
235	94	23	34	7	9	14	85	42	7	34	6-26_15:27:26.0	0				
228	84	26	38	12	17	16	80	44	7	26	6-26_15:27:27.0	0				
363	136	32	56	14	16	10	109	48	9	356	6-26_15:27:28.0	0				
335	131	36	54	11	23	10	106	30	8	0	6-26_15:27:29.0	0				
297	121	24	42	9	13	16	96	48	22	5	6-26_15:27:30.0	0				
305	124	23	42	8	15	6	107	46	2	51	6-26_15:27:31.0	0				
239	105	30	44	9	9	12	71	55	9	29	6-26_15:27:32.0	0				
225	82	28	38	13	16	14	82	57	4	294	6-26_15:27:33.0	0				
228	84	24	36	2	3	7	76	65	357	265	6-26_15:27:34.0	0				
169	110	32	59	16	18	22	75	63	7	330	6-26_15:27:35.0	0				
198	226	75	109	23	39	37	109	5	24	6	6-26_15:27:36.0	0				
215	259	90	128	37	52	57	121	0	24	10	6-26_15:27:37.0	0				
274	303	102	156	50	67	75	145	0	24	9	6-26_15:27:38.0	0				
276	305	94	145	40	65	68	147	0	23	10	6-26_15:27:39.0	0				
267	297	93	143	42	65	69	147	0	23	10	6-26_15:27:40.0	0				
265	289	92	140	47	72	75	144	0	23	10	6-26_15:27:41.0	0				
252	276	96	139	41	64	68	139	0	24	10	6-26_15:27:42.0	0				
253	280	96	134	31	60	64	151	0	24	10	6-26_15:27:43.0	0				
258	282	96	139	37	62	66	149	0	23	10	6-26_15:27:44.0	0				
263	293	85	141	50	77	78	143	0	23	10	6-26_15:27:45.0	0				
268	285	102	147	42	57	61	148	0	23	10	6-26_15:27:46.0	0				
248	285	86	139	47	65	66	132	0	24	10	6-26_15:27:47.0	0				
248	277	94	132	35	68	68	146	0	24	10	6-26_15:27:48.0	0				
249	285	86	135	46	67	66	136	0	23	10	6-26_15:27:49.0	0				
266	290	97	149	43	55	57	145	0	24	9	6-26_15:27:50.0	0				
251	290	85	135	43	77	78	143	0	24	10	6-26_15:27:51.0	0				
258	284	95	147	42	58	64	144	0	24	10	6-26_15:27:52.0	0				
247	279	90	144	41	59	62	145	0	24	10	6-26_15:27:53.0	0				
242	279	92	146	39	55	66	144	0	24	10	6-26_15:27:54.0	0				
245	277	100	141	33	64	72	136	0	24	10	6-26_15:27:55.0	0				
244	284	91	148	43	62	68	141	0	24	10	6-26_15:27:56.0	0				
249	285	93	141	40	61	65	140	0	24	10	6-26_15:27:57.0	0				
261	290	93	147	40	65	57	141	1	30	8	6-26_15:27:58.0	0				
265	293	91	142	41	69	62	140	2	26	12	6-26_15:27:59.0	0				
237	224	60	91	16	36	21	116	15	10	9	6-26_15:28:0.0	0				
142	80	30	18	21	2	7	59	42	350	300	6-26_15:28:1.0	0				
291	117	31	61	2	25	18	88	48	339	228	6-26_15:28:2.0	0				
280	139	40	80	1	40	32	89	30	352	267	6-26_15:28:3.0	0				
232	225	75	125	46	73	113	102	356	5	292	6-26_15:28:4.0	0				
226	232	76	128	39	80	105	105	359	4	290	6-26_15:28:5.0	0				
224	228	84	112	52	65	107	105	359	4	290	6-26_15:28:6.0	0				
220	210	70	112	40	70	98	93	359	4	290	6-26_15:28:7.0	0				
227	218	67	112	38	63	82	100	359	3	291	6-26_15:28:8.0	0				
216	201	63	107	32	66	76	87	359	3	291	6-26_15:28:9.0	0				
215	204	58	114	25	73	75	97	359	4	290	6-26_15:28:10.0	0				
220	221	62	118	30	74	90	101	0	4	290	6-26_15:28:11.0	0				
205	209	57	104	23	64	65	90	0	4	290	6-26_15:28:12.0	0				
210	212	61	98	38	55	78	89	0	4	290	6-26_15:28:13.0	0				
221	204	50	107	34	49	73	78	0	4	290	6-26_15:28:14.0	0				
206	220	69	96	39	56	79	87	359	4	290	6-26_15:28:15.0	0				
211	217	69	97	37	57	77	87	0	4	290	6-26_15:28:16.0	0				
203	221	66	107	25	68	72	84	0	3	290	6-26_15:28:17.0	0				
204	218	63	101	32	60	72	88	359	4	290	6-26_15:28:18.0	0				
203	201	50	103	31	51	73	78	359	4	290	6-26_15:28:19.0	0				
183	190	55	82	26	48	49	77	0	4	289	6-26_15:28:20.0	0				
192	180	48	87	38	37	69	71	0	4	290	6-26_15:28:21.0	0				
182	194	53	88	25	47	57	69	359	4	290	6-26_15:28:22.0	0				
187	190	59	86	24	49	52	75	0	4	290	6-26_15:28:23.0	0				
188	188	60	84	25	51	53	72	0	4	290	6-26_15:28:24.0	0				
186	182	59	84	27	51	53	74	0	4	290	6-26_15:28:25.0	0				
181	194	55	94	18	45	53	71	359	5	292	6-26_15:28:26.0	0				
189	189	49	98	31	33	74	76	0	4	291	6-26_15:28:27.0	0				
191	188	51	95	31	40	68	71	0	4	291	6-26_15:28:28.0	0				
195	190	57	88	29	51	55	73	0	5	291	6-26_15:28:29.0	0				
190	179	48	81	40	50	56	80	0	5	291	6-26_15:28:30.0	0				
194	185	56	89	24	49	57	74	0	5	291	6-26_15:28:31.0	0				
184	178	53	81	19	40	48	57	0	4	291	6-26_15:28:32.0	0				
188	186	58	88	20	38	60	57	0	4	290	6-26_15:28:33.0	0				
195	187	57	83	28	50	49	71	0	5	290	6-26_15:28:34.0	0				
196	196	71	88	20	55	53	58	0	5	290	6-26_15:28:35.0	0				
183	190	48	86	33	44	38	74	0	4	290	6-26_15:28:36.0	0				
195	205	60	100	30	49	54	74	0	5	290	6-26_15:28:37.0	0				
191	183	59	82	24	39	48	58	0	5	291	6-26_15:28:38.0	0				
190	181	58	79	19	43	32	62	0	5	290	6-26_15:28:39.0	0				
198	199	56	99	22	34	52	78	0	5	290	6-26_15:28:40.0	0				
192	197	52	92	29	38	42	78	0	4	290	6-26_15:28:41.0	0				
191	186	49	85	34	52	38	75	0	5	291	6-26_15:28:42.0	0				
198	201	53	101	38	35	51	85	0	5	290	6-26_15:28:43.0	0				
202	192	62	88	21	49	47	72	0	5	290	6-26_15:28:44.0	0				
202	201	59	95	27	46	55	85	0	4	291	6-26_15:28:45.0	0				
187	179	48	89	30	38	41	85	0	4	290	6-26_15:28:46.0	0				
186	185	50	86	27	42	46	89	0	5	290	6-26_15:28:47.0	0				
192	171	57	78	19	38	53	84	0	4	290	6-26_15:28:48.0	0				
192	173	47	80	26	46	45	79	0	5	290	6-26_15:28:49.0	0				
184	181	41	83	32	49	34	74	0	5	291	6-26_15:28:50.0	0				
194	182	55	89	15	31	62	82	0	5	290	6-26_15:28:51.0	0				
189	180	47	82	26	37	54	80	0	5	290	6-26_15:28:52.0	0				
191	183	47	88	28	37	48	86	0	4	290	6-26_15:28:53.0	0				
197	183	52	89	22	31	50	80	0	5	291	6-26_15:28:54.0	0				
197	183	57	92	23	30	54	86	0	5	290	6-26_15:28:55.0	0				
200	191	53	94	32	41	42	76	0	4	290	6-26_15:28:56.0	0				
196	187	54	89	23	32	52	79	0	5	290	6-26_15:28:57.0	0				
183	182	49	80	15	32	55	80	0	4	290	6-26_15:28:58.0	0				
185	189	47	79	16	35	53	79	0	4	290	6-26_15:28:59.0	0				
189	184	59	95	28	33	47	82	0	5	290	6-26_15:29:0.0	0				
185	190	48	82	22	39	53	77	0	5	290	6-26_15:29:1.0	0				
193	191	46	78	20	45	59	84	0	4	290	6-26_15:29:2.0	0				
198	194	47	83	20	38	64	84	0	4	290	6-26_15:29:3.0	0				
205	199	53	87	26	40	64	89	0	4	290	6-26_15:29:4.0	0				
209	210	50	94	39	55	63	81	0	5	290	6-26_15:29:5.0	0				
208	202	58	94	33	46	58	90	0	5	290	6-26_15:29:6.0	0				
204	200	57	92	25	37	59	87	0	4	290	6-26_15:29:7.0	0				
207	204	46	86	23	40	66	92	0	4	291	6-26_15:29:8.0	0				
216	219	42	84	26	43	72	96	0	4	291	6-26_15:29:9.0	0				
208	203	54	86	30	53	66	93	0	5	291	6-26_15:29:10.0	0				
187	193	67	101	38	52	56	92	0	5	290	6-26_15:29:11.0	0				
207	210	45	81	17	39	72	91	0	5	291	6-26_15:29:12.0	0				
191	194	65	101	33	53	56	87	0	5	290	6-26_15:29:13.0	0				
206	209	51	92	22	42	63	90	359	5	291	6-26_15:29:14.0	0				
206	210	63	102	31	52	62	95	0	5	291	6-26_15:29:15.0	0				
201	211	60	98	21	38	54	90	0	5	291	6-26_15:29:16.0	0				
219	222	74	117	43	66	78	106	0	5	291	6-26_15:29:17.0	0				
214	221	72	120	43	68	78	99	0	5	291	6-26_15:29:18.0	0				
219	227	61	103	31	53	88	106	0	5	290	6-26_15:29:19.0	0				
220	223	57	97	27	50	89	106	0	5	291	6-26_15:29:20.0	0				
207	212	75	115	42	64	81	97	0	5	290	6-26_15:29:21.0	0				
209	203	61	105	33	54	72	101	0	5	290	6-26_15:29:22.0	0				
200	200	71	111	41	65	84	97	0	5	291	6-26_15:29:23.0	0				
203	208	78	126	38	70	91	114	0	5	291	6-26_15:29:24.0	0				
218	206	75	117	41	62	97	107	0	4	291	6-26_15:29:25.0	0				
223	213	64	108	30	55	94	102	0	5	291	6-26_15:29:26.0	0				
219	205	64	109	36	65	87	108	0	5	291	6-26_15:29:27.0	0				
209	199	71	112	38	62	93	106	1	4	291	6-26_15:29:28.0	0				
213	197	70	106	35	60	97	109	1	4	292	6-26_15:29:29.0	0				
214	200	81	120	47	74	105	115	0	5	292	6-26_15:29:30.0	0				
219	212	76	116	39	63	98	107	0	5	292	6-26_15:29:31.0	0				
223	221	81	125	49	74	102	112	0	5	291	6-26_15:29:32.0	0				
234	232	67	112	35	70	94	106	0	5	291	6-26_15:29:33.0	0				
223	224	76	117	35	58	93	101	0	4	292	6-26_15:29:34.0	0				
227	223	77	125	53	81	106	116	0	5	291	6-26_15:29:35.0	0				
224	226	69	111	36	66	96	108	0	5	291	6-26_15:29:36.0	0				
230	231	68	114	38	65	94	108	0	4	291	6-26_15:29:37.0	0				
226	226	73	119	44	73	101	113	0	5	292	6-26_15:29:38.0	0				
230	228	66	114	42	76	101	116	0	5	291	6-26_15:29:39.0	0				
215	210	82	125	45	64	96	101	0	5	292	6-26_15:29:40.0	0				
216	210	68	107	41	65	95	95	0	5	292	6-26_15:29:41.0	0				
98	58	30	38	19	20	35	51	6	2	246	6-26_15:29:42.0	0				
117	131	53	87	13	28	44	84	2	4	227	6-26_15:29:43.0	0				
113	141	51	92	20	35	49	82	2	4	228	6-26_15:29:44.0	0				
103	131	47	88	20	29	44	78	2	4	228	6-26_15:29:45.0	0				
111	122	39	80	24	39	54	82	2	3	229	6-26_15:29:46.0	0				
91	120	31	76	30	36	47	63	2	4	228	6-26_15:29:47.0	0				
97	134	47	94	18	27	44	86	2	4	229	6-26_15:29:48.0	0				
111	124	36	81	23	43	58	84	2	4	228	6-26_15:29:49.0	0				
110	125	51	79	15	39	55	85	2	4	229	6-26_15:29:50.0	0				
96	132	46	91	17	28	46	87	2	4	228	6-26_15:29:51.0	0				
94	132	47	89	22	30	41	80	2	4	228	6-26_15:29:52.0	0				
99	126	44	80	19	39	51	80	2	4	228	6-26_15:29:53.0	0				
100	119	34	84	26	27	40	90	2	4	228	6-26_15:29:54.0	0				
95	122	29	87	36	29	38	81	2	4	228	6-26_15:29:55.0	0				
100	126	41	88	23	31	44	86	2	4	227	6-26_15:29:56.0	0				
109	120	43	77	25	36	47	78	2	4	229	6-26_15:29:57.0	0				
71	89	35	42	14	23	34	66	2	3	227	6-26_15:29:58.0	0				
107	125	48	78	21	44	49	79	1	4	229	6-26_15:29:59.0	0				
110	134	54	84	15	49	59	82	2	4	228	6-26_15:30:0.0	0				
104	133	44	93	19	37	49	91	2	4	229	6-26_15:30:1.0	0				
112	123	40	89	30	31	41	90	2	3	228	6-26_15:30:2.0	0				
107	124	44	82	24	39	46	87	2	4	228	6-26_15:30:3.0	0				
95	125	49	74	17	44	50	75	2	3	228	6-26_15:30:4.0	0				
84	104	35	65	7	32	41	62	2	4	228	6-26_15:30:5.0	0				
86	100	29	71	7	23	38	63	2	4	228	6-26_15:30:6.0	0				
101	113	42	80	15	37	44	76	2	3	228	6-26_15:30:7.0	0				
105	105	32	75	23	27	30	84	2	3	228	6-26_15:30:8.0	0				
110	108	32	86	22	26	38	91	2	3	228	6-26_15:30:9.0	0				
109	112	38	74	29	32	29	88	2	3	228	6-26_15:30:10.0	0				
111	125	41	82	15	37	46	74	2	3	227	6-26_15:30:11.0	0				
128	138	52	90	20	46	48	79	2	3	228	6-26_15:30:12.0	0				
116	146	45	91	19	40	50	87	2	3	228	6-26_15:30:13.0	0				
115	139	45	81	26	39	43	86	2	3	228	6-26_15:30:14.0	0				
123	126	35	81	26	25	41	87	2	4	229	6-26_15:30:15.0	0				
114	136	46	77	25	36	38	88	2	4	229	6-26_15:30:16.0	0				
120	162	59	86	21	50	47	92	2	4	228	6-26_15:30:17.0	0				
123	138	44	85	29	35	49	92	2	4	229	6-26_15:30:18.0	0				
126	141	41	88	30	35	46	95	2	4	228	6-26_15:30:19.0	0				
124	147	47	95	21	46	56	89	2	4	228	6-26_15:30:20.0	0				
125	140	40	100	10	50	64	81	2	4	229	6-26_15:30:21.0	0				
135	157	54	86	34	32	56	99	2	4	228	6-26_15:30:22.0	0				
111	133	49	87	18	46	47	89	2	4	228	6-26_15:30:23.0	0				
112	135	48	88	22	38	55	88	2	3	228	6-26_15:30:24.0	0				
99	136	45	81	27	31	51	86	2	4	228	6-26_15:30:25.0	0				
109	130	39	88	15	42	55	82	2	3	228	6-26_15:30:26.0	0				
104	132	40	85	22	36	60	78	2	3	228	6-26_15:30:27.0	0				
114	124	40	86	16	42	48	88	2	3	228	6-26_15:30:28.0	0				
102	133	44	82	14	42	56	80	2	3	228	6-26_15:30:29.0	0				
102	136	50	74	29	32	54	82	2	3	228	6-26_15:30:30.0	0				
106	119	38	84	16	39	50	80	2	3	228	6-26_15:30:31.0	0				
117	144	55	88	30	42	58	93	2	3	228	6-26_15:30:32.0	0				
132	155	53	95	22	51	54	100	2	4	228	6-26_15:30:33.0	0				
135	143	48	102	23	46	61	90	2	3	228	6-26_15:30:34.0	0				
116	161	61	86	33	38	57	90	2	4	229	6-26_15:30:35.0	0				
129	150	48	100	21	50	51	97	2	3	228	6-26_15:30:36.0	0				
121	154	53	96	23	48	57	93	2	4	229	6-26_15:30:37.0	0				
123	155	52	94	25	47	58	91	2	4	229	6-26_15:30:38.0	0				
116	125	37	90	11	49	48	93	2	4	228	6-26_15:30:39.0	0				
111	119	38	80	15	36	42	85	2	3	228	6-26_15:30:40.0	0				
113	130	49	68	29	30	50	82	2	3	228	6-26_15:30:41.0	0				
113	131	43	82	17	36	49	86	2	3	228	6-26_15:30:42.0	0				
110	128	48	81	23	34	51	85	2	3	228	6-26_15:30:43.0	0				
107	121	30	96	8	46	36	90	2	3	228	6-26_15:30:44.0	0				
133	153	56	96	20	45	50	94	2	4	228	6-26_15:30:45.0	0				
161	173	71	105	41	44	61	97	2	5	226	6-26_15:30:46.0	0				
159	163	69	113	30	45	42	107	2	4	225	6-26_15:30:47.0	0				
118	148	55	88	26	44	54	93	2	4	226	6-26_15:30:48.0	0				
146	154	51	119	13	59	44	99	2	4	226	6-26_15:30:49.0	0				
124	136	50	91	29	37	56	90	2	4	226	6-26_15:30:50.0	0				
173	161	70	124	31	59	46	118	2	4	225	6-26_15:30:51.0	0				
177	177	84	131	40	69	59	125	2	4	226	6-26_15:30:52.0	0				
182	184	90	134	45	71	65	129	2	4	226	6-26_15:30:53.0	0				
186	186	91	138	44	73	70	132	2	4	226	6-26_15:30:54.0	0				
182	183	88	134	47	65	75	126	2	4	226	6-26_15:30:55.0	0				
195	181	85	144	39	70	66	132	2	4	226	6-26_15:30:56.0	0				
185	186	90	143	44	71	73	129	2	4	226	6-26_15:30:57.0	0				
191	179	82	146	41	72	72	131	2	4	226	6-26_15:30:58.0	0				
186	192	96	138	51	70	78	129	2	4	226	6-26_15:30:59.0	0				
193	189	86	153	38	83	69	140	2	4	227	6-26_15:31:0.0	0				
208	184	86	153	39	82	62	140	2	4	225	6-26_15:31:1.0	0				
196	192	97	142	52	70	79	134	2	4	226	6-26_15:31:2.0	0				
194	193	97	143	48	77	76	139	2	4	226	6-26_15:31:3.0	0				
195	189	86	149	44	70	78	133	2	5	226	6-26_15:31:4.0	0				
191	191	85	153	38	86	65	142	2	4	227	6-26_15:31:5.0	0				
193	193	93	148	45	79	74	138	2	4	225	6-26_15:31:6.0	0				
188	190	89	152	40	79	68	135	2	4	226	6-26_15:31:7.0	0				
185	189	89	147	40	78	74	134	2	4	226	6-26_15:31:8.0	0				
200	185	92	140	53	66	84	132	2	4	226	6-26_15:31:9.0	0				
178	194	89	152	32	84	63	133	2	4	226	6-26_15:31:10.0	0				
187	185	96	134	43	83	66	137	2	4	226	6-26_15:31:11.0	0				
189	190	97	135	50	74	76	136	2	4	225	6-26_15:31:12.0	0				
193	192	95	143	43	79	69	135	2	4	226	6-26_15:31:13.0	0				
193	198	102	144	41	88	64	136	2	4	226	6-26_15:31:14.0	0				
194	187	85	148	47	68	80	131	2	4	226	6-26_15:31:15.0	0				
204	187	99	138	52	79	71	141	2	4	225	6-26_15:31:16.0	0				
194	185	84	148	47	68	82	134	2	4	226	6-26_15:31:17.0	0				
194	186	87	145	50	71	79	138	2	4	226	6-26_15:31:18.0	0				
190	195	92	149	41	70	78	132	2	4	226	6-26_15:31:19.0	0				
190	187	83	145	54	68	81	140	2	4	226	6-26_15:31:20.0	0				
197	191	94	144	44	79	70	133	2	4	226	6-26_15:31:21.0	0				
196	197	90	151	44	71	79	134	2	4	225	6-26_15:31:22.0	0				
190	195	86	152	45	70	78	136	2	4	226	6-26_15:31:23.0	0				
197	195	94	148	40	76	75	132	2	4	226	6-26_15:31:24.0	0				
195	191	96	143	47	84	63	130	2	4	226	6-26_15:31:25.0	0				
194	192	87	147	48	73	74	137	2	4	225	6-26_15:31:26.0	0				
193	192	87	145	55	75	69	138	2	4	226	6-26_15:31:27.0	0				
197	193	93	149	45	75	75	133	2	4	225	6-26_15:31:28.0	0				
201	199	96	155	37	69	78	133	2	4	226	6-26_15:31:29.0	0				
194	184	95	143	45	78	72	131	2	4	226	6-26_15:31:30.0	0				
195	191	94	147	42	75	74	131	2	4	225	6-26_15:31:31.0	0				
185	188	85	141	48	80	69	127	2	4	226	6-26_15:31:32.0	0				
187	187	90	144	43	72	73	131	2	4	225	6-26_15:31:33.0	0				
182	182	90	140	41	73	67	123	2	4	226	6-26_15:31:34.0	0				
193	191	91	150	43	69	72	132	2	4	226	6-26_15:31:35.0	0				
176	183	85	138	46	80	67	122	2	4	226	6-26_15:31:36.0	0				
190	181	98	150	38	62	80	136	2	4	226	6-26_15:31:37.0	0				
191	178	101	145	30	67	85	137	2	4	226	6-26_15:31:38.0	0				
182	179	98	140	33	70	84	135	2	4	226	6-26_15:31:39.0	0				
175	175	93	138	33	65	78	131	2	4	226	6-26_15:31:40.0	0				
170	174	87	139	45	72	66	118	2	4	226	6-26_15:31:41.0	0				
163	169	86	138	39	64	68	120	2	4	226	6-26_15:31:42.0	0				
172	181	73	133	49	80	66	117	2	4	225	6-26_15:31:43.0	0				
176	175	90	140	37	69	72	125	2	4	225	6-26_15:31:44.0	0				
192	187	92	147	48	75	67	124	2	4	226	6-26_15:31:45.0	0				
193	186	96	154	51	78	68	125	2	4	226	6-26_15:31:46.0	0				
188	192	82	136	38	75	83	136	2	4	226	6-26_15:31:47.0	0				
194	193	87	142	45	76	72	128	2	4	226	6-26_15:31:48.0	0				
196	193	92	151	52	79	68	125	2	4	225	6-26_15:31:49.0	0				
195	193	90	141	41	72	73	127	2	4	226	6-26_15:31:50.0	0				
181	180	92	147	49	76	69	122	2	4	225	6-26_15:31:51.0	0				
174	179	79	131	38	71	79	128	2	4	226	6-26_15:31:52.0	0				
165	172	79	130	40	72	74	121	2	4	226	6-26_15:31:53.0	0				
149	159	91	139	50	80	68	118	2	4	226	6-26_15:31:54.0	0				
157	165	79	126	32	64	60	108	3	4	225	6-26_15:31:55.0	0				
153	167	74	126	41	71	77	119	2	4	225	6-26_15:31:56.0	0				
173	180	71	120	27	59	64	111	2	4	226	6-26_15:31:57.0	0				
188	191	77	130	30	62	68	118	2	4	226	6-26_15:31:58.0	0				
193	191	90	144	50	78	77	132	2	4	226	6-26_15:31:59.0	0				
188	187	94	147	43	75	73	127	2	4	226	6-26_15:32:0.0	0				
191	190	86	143	42	74	72	126	2	4	225	6-26_15:32:1.0	0				
201	199	81	139	35	67	66	126	2	4	226	6-26_15:32:2.0	0				
205	201	83	138	34	65	65	121	2	4	226	6-26_15:32:3.0	0				
195	190	96	150	44	76	67	127	2	4	226	6-26_15:32:4.0	0				
194	190	91	150	50	78	81	134	2	4	226	6-26_15:32:5.0	0				
195	192	91	146	45	70	75	128	2	4	226	6-26_15:32:6.0	0				
197	195	89	143	43	71	74	128	2	4	226	6-26_15:32:7.0	0				
195	190	96	150	48	80	76	128	2	4	227	6-26_15:32:8.0	0				
191	190	94	146	44	72	78	126	2	4	226	6-26_15:32:9.0	0				
195	194	89	144	41	72	72	131	2	4	226	6-26_15:32:10.0	0				
194	193	88	143	46	78	69	129	2	4	226	6-26_15:32:11.0	0				
190	190	89	142	37	69	68	120	2	4	225	6-26_15:32:12.0	0				
197	192	95	150	49	82	78	133	2	4	226	6-26_15:32:13.0	0				
188	188	96	147	44	66	74	124	2	4	226	6-26_15:32:14.0	0				
197	197	87	144	43	77	73	130	2	4	226	6-26_15:32:15.0	0				
198	201	83	144	44	84	74	140	2	4	226	6-26_15:32:16.0	0				
186	184	94	144	41	67	68	124	2	4	226	6-26_15:32:17.0	0				
197	194	92	148	48	78	77	130	2	4	225	6-26_15:32:18.0	0				
190	191	86	140	36	74	69	128	2	4	226	6-26_15:32:19.0	0				
195	189	93	147	46	77	76	127	2	4	226	6-26_15:32:20.0	0				
194	198	81	144	48	87	83	128	2	4	226	6-26_15:32:21.0	0				
190	184	96	141	36	62	63	128	2	4	226	6-26_15:32:22.0	0				
188	191	85	140	42	79	76	130	2	4	225	6-26_15:32:23.0	0				
196	192	95	149	46	68	67	122	2	4	225	6-26_15:32:24.0	0				
187	187	89	141	41	73	72	124	2	4	226	6-26_15:32:25.0	0				
189	183	93	144	36	65	64	127	2	4	226	6-26_15:32:26.0	0				
191	194	85	149	45	77	74	124	2	5	226	6-26_15:32:27.0	0				
199	199	91	154	60	78	76	115	2	4	225	6-26_15:32:28.0	0				
206	193	105	154	37	59	60	135	2	4	226	6-26_15:32:29.0	0				
195	197	90	152	49	70	70	124	2	4	226	6-26_15:32:30.0	0				
191	187	91	142	40	75	75	128	2	4	226	6-26_15:32:31.0	0				
187	193	86	148	46	74	74	126	2	4	226	6-26_15:32:32.0	0				
186	192	82	146	54	75	76	122	2	4	226	6-26_15:32:33.0	0				
190	191	89	145	43	71	70	129	2	4	226	6-26_15:32:34.0	0				
185	179	83	135	42	83	74	120	2	4	226	6-26_15:32:35.0	0				
191	195	95	149	35	74	78	128	2	4	226	6-26_15:32:36.0	0				
192	187	89	143	40	74	75	126	2	4	225	6-26_15:32:37.0	0				
191	189	94	143	38	77	77	127	2	4	226	6-26_15:32:38.0	0				
185	192	82	153	50	64	61	133	3	4	226	6-26_15:32:39.0	0				
199	187	98	139	32	81	79	122	2	4	225	6-26_15:32:40.0	0				
192	192	91	148	40	71	72	129	2	4	226	6-26_15:32:41.0	0				
189	181	77	146	59	66	58	132	2	4	225	6-26_15:32:42.0	0				
205	186	102	132	37	90	81	113	2	4	227	6-26_15:32:43.0	0				
188	190	96	141	36	80	79	118	2	4	226	6-26_15:32:44.0	0				
170	188	94	144	30	75	83	114	2	4	226	6-26_15:32:45.0	0				
158	173	77	141	34	69	78	113	2	4	226	6-26_15:32:46.0	0				
160	163	79	123	49	57	58	124	2	4	226	6-26_15:32:47.0	0				
138	151	68	120	33	68	72	107	2	4	226	6-26_15:32:48.0	0				
128	147	67	110	39	62	63	109	2	4	226	6-26_15:32:49.0	0				
132	145	65	118	29	64	72	101	2	4	225	6-26_15:32:50.0	0				
137	136	55	124	25	70	79	97	2	4	226	6-26_15:32:51.0	0				
132	147	70	107	35	64	55	115	2	4	225	6-26_15:32:52.0	0				
122	153	73	106	42	58	62	108	2	4	226	6-26_15:32:53.0	0				
128	146	61	116	35	61	79	99	2	4	226	6-26_15:32:54.0	0				
141	143	59	127	26	73	71	106	2	4	226	6-26_15:32:55.0	0				
134	144	61	122	30	66	73	103	2	4	225	6-26_15:32:56.0	0				
133	148	67	115	37	62	65	108	2	4	226	6-26_15:32:57.0	0				
137	144	60	124	26	75	65	110	2	4	226	6-26_15:32:58.0	0				
129	152	68	113	41	59	71	103	2	4	225	6-26_15:32:59.0	0				
137	152	69	119	35	66	67	110	2	4	225	6-26_15:33:0.0	0				
139	148	61	125	25	74	64	114	2	4	226	6-26_15:33:1.0	0				
141	154	73	119	34	64	62	111	2	4	225	6-26_15:33:2.0	0				
134	161	74	116	37	65	74	107	2	4	225	6-26_15:33:3.0	0				
156	160	73	129	34	69	67	116	2	4	225	6-26_15:33:4.0	0				
143	169	81	121	42	66	77	111	2	4	226	6-26_15:33:5.0	0				
147	168	81	122	42	66	73	111	2	4	226	6-26_15:33:6.0	0				
173	163	75	135	38	69	66	122	2	4	226	6-26_15:33:7.0	0				
171	177	85	136	41	69	71	120	2	4	226	6-26_15:33:8.0	291.7				
178	166	78	138	37	68	62	121	2	4	226	6-26_15:33:9.0	292.5				
171	170	76	138	36	73	67	119	2	4	226	6-26_15:33:10.0	292				
168	180	90	132	48	69	72	121	2	4	225	6-26_15:33:11.0	290.8				
171	176	78	144	33	81	64	128	2	4	227	6-26_15:33:12.0	289.1				
175	176	86	133	47	66	76	118	2	4	226	6-26_15:33:13.0	288.2				
167	173	79	138	35	73	65	123	2	4	226	6-26_15:33:14.0	287.1				
160	161	75	125	43	62	74	114	2	4	226	6-26_15:33:15.0	287.1				
131	167	70	135	17	75	54	111	2	4	225	6-26_15:33:16.0	285.4				
135	155	71	118	33	69	66	108	2	4	226	6-26_15:33:17.0	284.3				
131	153	61	126	34	60	73	104	2	4	225	6-26_15:33:18.0	284.1				
144	159	75	126	31	69	67	107	2	4	226	6-26_15:33:19.0	283.3				
137	155	72	119	32	66	67	107	2	4	226	6-26_15:33:20.0	283.1				
129	151	67	117	23	66	64	102	2	4	226	6-26_15:33:21.0	281.7				
117	137	61	103	44	69	62	112	2	4	225	6-26_15:33:22.0	281.1				
133	152	70	119	21	62	71	99	2	4	225	6-26_15:33:23.0	281.6				
120	135	68	103	31	74	57	102	2	4	225	6-26_15:33:24.0	281.7				
123	137	70	106	33	70	62	104	2	4	226	6-26_15:33:25.0	280.2				
126	138	73	109	27	65	67	100	3	4	225	6-26_15:33:26.0	279				
120	141	63	111	35	63	66	106	2	4	225	6-26_15:33:27.0	280.5				
114	130	66	98	31	75	56	96	2	4	226	6-26_15:33:28.0	280.7				
119	140	63	107	33	65	66	103	2	4	226	6-26_15:33:29.0	281.6				
126	153	49	112	48	62	61	110	2	4	226	6-26_15:33:30.0	281.2				
124	138	68	113	28	57	79	103	2	4	225	6-26_15:33:31.0	281.2				
111	130	69	103	24	67	69	100	3	4	226	6-26_15:33:32.0	278.7				
120	139	65	110	32	59	71	105	2	4	226	6-26_15:33:33.0	279				
118	141	61	108	34	67	63	100	2	4	226	6-26_15:33:34.0	280.2				
127	150	50	108	47	72	54	95	2	4	226	6-26_15:33:35.0	278.8				
114	136	65	106	30	64	67	102	2	4	226	6-26_15:33:36.0	279.2				
119	135	71	117	32	52	67	109	2	4	226	6-26_15:33:37.0	279.3				
118	139	61	106	33	65	63	103	2	4	226	6-26_15:33:38.0	279.3				
111	132	60	101	29	63	71	105	3	4	226	6-26_15:33:39.0	278.3				
119	139	60	101	28	62	69	103	2	4	225	6-26_15:33:40.0	278.1				
115	138	61	99	21	57	77	111	2	4	226	6-26_15:33:41.0	277.9				
124	146	53	98	31	69	69	103	2	4	226	6-26_15:33:42.0	277.2				
116	135	64	105	27	56	68	106	2	4	226	6-26_15:33:43.0	276.9				
112	133	66	108	29	57	67	108	2	4	226	6-26_15:33:44.0	278.4				
120	141	59	102	29	63	70	105	2	4	226	6-26_15:33:45.0	277.3				
122	142	56	101	30	63	69	106	2	4	226	6-26_15:33:46.0	277				
120	143	58	103	34	65	67	104	2	4	226	6-26_15:33:47.0	276.4				
112	131	69	114	41	69	59	98	3	4	226	6-26_15:33:48.0	276.7				
108	130	70	113	39	65	60	98	2	4	225	6-26_15:33:49.0	275.8				
112	135	60	108	45	79	69	105	3	4	226	6-26_15:33:50.0	275.4				
110	129	70	111	38	68	64	101	3	4	226	6-26_15:33:51.0	273.6				
122	140	60	102	28	55	58	99	2	4	226	6-26_15:33:52.0	274.2				
115	138	60	105	34	64	65	104	2	4	226	6-26_15:33:53.0	273				
113	136	61	104	36	66	71	104	2	4	226	6-26_15:33:54.0	273				
119	135	67	109	35	65	66	104	2	4	226	6-26_15:33:55.0	273.7				
123	145	56	101	26	56	60	97	2	4	226	6-26_15:33:56.0	274.7				
119	140	61	104	31	60	63	102	2	4	226	6-26_15:33:57.0	273.2				
121	141	62	105	33	70	66	104	3	4	225	6-26_15:33:58.0	273.4				
118	131	72	117	44	74	71	111	2	4	226	6-26_15:33:59.0	274.4				
115	134	63	106	35	65	67	103	2	4	226	6-26_15:34:0.0	274.2				
110	131	67	109	37	66	75	108	2	4	226	6-26_15:34:1.0	275.8				
116	137	64	106	33	61	67	104	2	4	226	6-26_15:34:2.0	276.4				
120	141	66	110	37	71	70	109	3	4	226	6-26_15:34:3.0	276.4				
122	141	69	114	40	74	72	111	3	4	226	6-26_15:34:4.0	278.4				
112	140	57	98	26	59	60	99	2	4	226	6-26_15:34:5.0	281				
123	145	68	114	45	76	71	109	2	4	226	6-26_15:34:6.0	281.5				
124	145	65	108	38	74	70	112	2	4	226	6-26_15:34:7.0	283.2				
115	139	64	105	30	63	67	105	3	4	225	6-26_15:34:8.0	284.1				
116	137	64	105	31	63	69	103	2	4	226	6-26_15:34:9.0	283.7				
120	144	61	105	35	69	63	105	2	4	226	6-26_15:34:10.0	284.1				
119	135	67	106	29	58	59	97	2	4	225	6-26_15:34:11.0	285.3				
119	139	64	105	31	62	65	104	2	4	226	6-26_15:34:12.0	286.2				
121	145	64	109	36	67	70	108	2	4	226	6-26_15:34:13.0	286.7				
114	141	58	103	32	68	68	110	2	4	226	6-26_15:34:14.0	287.9				
112	139	61	103	24	56	57	106	3	4	226	6-26_15:34:15.0	287.7				
122	135	68	102	25	60	66	110	2	4	226	6-26_15:34:16.0	287.8				
122	148	63	111	39	67	66	106	2	4	226	6-26_15:34:17.0	288.1				
133	152	72	117	39	67	70	108	2	4	226	6-26_15:34:18.0	288.1				
149	164	74	123	35	66	65	111	2	4	225	6-26_15:34:19.0	288				
157	173	72	124	35	76	74	127	2	4	226	6-26_15:34:20.0	288.6				
169	176	84	135	43	71	72	115	2	4	226	6-26_15:34:21.0	289.2				
162	171	80	128	38	72	70	121	2	4	226	6-26_15:34:22.0	290.8				
171	175	87	138	44	70	72	118	2	4	226	6-26_15:34:23.0	290.4				
169	174	84	136	42	70	71	120	2	4	225	6-26_15:34:24.0	291.5				
173	181	86	140	48	69	74	117	2	4	226	6-26_15:34:25.0	289.4				
165	172	81	130	38	70	72	119	2	4	226	6-26_15:34:26.0	289				
168	167	88	129	34	66	74	121	3	4	226	6-26_15:34:27.0	288				
157	172	83	132	38	60	65	114	2	4	226	6-26_15:34:28.0	287.6				
151	159	75	120	36	69	69	114	2	4	226	6-26_15:34:29.0	287.6				
142	157	68	123	43	70	67	111	2	4	225	6-26_15:34:30.0	287.9				
148	167	78	126	32	67	71	118	3	4	225	6-26_15:34:31.0	287.8				
150	164	76	125	37	64	65	117	2	4	226	6-26_15:34:32.0	285.8				
145	162	70	126	43	65	66	116	2	4	226	6-26_15:34:33.0	286				
150	166	73	129	42	63	67	118	3	4	226	6-26_15:34:34.0	286.1				
152	174	82	132	32	66	70	120	2	4	226	6-26_15:34:35.0	285.6				
153	165	68	134	50	61	59	123	3	4	225	6-26_15:34:36.0	286				
157	164	70	129	48	64	60	123	3	4	225	6-26_15:34:37.0	287.2				
150	174	82	130	30	70	76	117	3	4	226	6-26_15:34:38.0	286.7				
155	172	79	131	33	67	74	116	3	4	226	6-26_15:34:39.0	286.5				
167	168	83	118	39	78	74	112	2	4	226	6-26_15:34:40.0	286.6				
164	165	77	120	48	70	65	119	2	4	226	6-26_15:34:41.0	286.3				
169	175	85	127	38	74	73	121	3	4	226	6-26_15:34:42.0	286.7				
173	176	87	123	43	74	73	115	3	4	225	6-26_15:34:43.0	286.9				
162	174	83	124	39	74	69	120	2	4	225	6-26_15:34:44.0	287.1				
168	174	84	125	43	71	66	121	2	4	226	6-26_15:34:45.0	286.8				
168	184	87	134	36	77	77	118	3	4	225	6-26_15:34:46.0	287				
177	180	84	133	44	75	72	120	3	4	226	6-26_15:34:47.0	287.1				
182	176	84	130	52	65	71	124	2	4	226	6-26_15:34:48.0	286.6				
170	188	90	132	37	79	71	124	2	4	226	6-26_15:34:49.0	285.5				
173	182	85	136	37	78	75	119	2	4	226	6-26_15:34:50.0	285.1				
176	184	89	126	50	66	66	126	2	4	226	6-26_15:34:51.0	284.5				
183	177	81	131	54	58	77	119	2	4	226	6-26_15:34:52.0	283.8				
178	179	82	138	39	75	78	122	2	3	225	6-26_15:34:53.0	283.8				
173	185	91	127	52	64	69	125	2	4	225	6-26_15:34:54.0	283.9				
178	179	82	136	43	71	79	118	2	4	226	6-26_15:34:55.0	283.4				
179	178	81	140	39	76	72	124	2	4	226	6-26_15:34:56.0	283.1				
175	181	85	135	40	75	69	125	2	4	225	6-26_15:34:57.0	282.8				
178	180	83	136	44	69	75	121	2	4	225	6-26_15:34:58.0	282.2				
176	180	83	136	41	74	71	127	2	4	226	6-26_15:34:59.0	282.6				
178	182	85	136	42	71	79	120	2	4	226	6-26_15:35:0.0	282.4				
180	179	82	136	41	73	73	121	2	4	226	6-26_15:35:1.0	282				
186	178	82	137	39	73	66	128	2	4	226	6-26_15:35:2.0	281.6				
182	182	87	131	49	63	72	123	2	4	226	6-26_15:35:3.0	281.2				
182	179	80	139	39	74	70	121	2	4	225	6-26_15:35:4.0	280.8				
176	186	86	136	42	72	73	123	2	4	226	6-26_15:35:5.0	280.8				
186	178	86	132	48	65	76	117	2	4	226	6-26_15:35:6.0	280.9				
178	186	92	127	48	70	77	123	2	4	226	6-26_15:35:7.0	280.6				
173	180	82	137	38	74	69	126	3	3	225	6-26_15:35:8.0	280.3				
165	185	81	140	31	81	65	123	2	4	226	6-26_15:35:9.0	280.3				
170	182	81	140	36	77	65	124	3	4	226	6-26_15:35:10.0	280.7				
173	179	76	143	37	74	70	123	2	4	226	6-26_15:35:11.0	280.4				
186	183	92	130	46	75	77	123	2	4	226	6-26_15:35:12.0	280.3				
180	182	88	134	41	75	68	129	2	4	226	6-26_15:35:13.0	279.9				
179	177	79	132	52	64	80	126	2	4	225	6-26_15:35:14.0	279.9				
182	177	86	131	47	73	72	129	2	4	226	6-26_15:35:15.0	279.5				
175	185	82	140	38	71	69	120	2	4	225	6-26_15:35:16.0	279.6				
178	182	82	137	40	68	77	120	2	4	226	6-26_15:35:17.0	279.6				
170	184	74	141	44	62	72	123	2	4	225	6-26_15:35:18.0	279.7				
175	176	80	129	48	73	71	123	2	4	226	6-26_15:35:19.0	279.7				
172	188	77	142	40	59	76	128	2	4	226	6-26_15:35:20.0	279.8				
171	180	74	134	50	70	69	132	2	4	226	6-26_15:35:21.0	279.5				
168	179	74	136	51	67	70	128	2	4	226	6-26_15:35:22.0	279.5				
182	184	87	142	34	65	77	121	2	4	225	6-26_15:35:23.0	279.4				
179	183	84	137	42	71	72	124	2	4	226	6-26_15:35:24.0	279.5				
181	189	85	144	41	62	80	127	2	4	226	6-26_15:35:25.0	279.5				
174	177	82	130	41	78	68	123	2	4	226	6-26_15:35:26.0	279.5				
172	173	86	129	36	73	79	123	2	4	226	6-26_15:35:27.0	279.6				
164	176	77	120	37	82	68	114	3	4	226	6-26_15:35:28.0	279.6				
169	181	76	129	44	80	67	119	3	4	226	6-26_15:35:29.0	279.6				
170	181	79	130	40	74	64	116	3	4	226	6-26_15:35:30.0	279.7				
182	186	76	135	51	78	61	116	2	4	226	6-26_15:35:31.0	279.7				
166	173	84	125	33	67	76	123	3	4	226	6-26_15:35:32.0	279.2				
166	176	84	127	29	63	76	124	2	4	226	6-26_15:35:33.0	279.4				
179	184	80	135	49	78	67	117	2	4	226	6-26_15:35:34.0	278.9				
175	181	79	128	37	69	81	129	2	4	226	6-26_15:35:35.0	279				
176	181	79	132	42	74	68	119	3	4	225	6-26_15:35:36.0	278.6				
171	177	84	134	42	71	68	121	2	4	226	6-26_15:35:37.0	278.5				
176	182	77	128	36	69	77	127	2	4	226	6-26_15:35:38.0	278.5				
167	173	86	136	41	68	68	121	3	4	226	6-26_15:35:39.0	278.1				
169	169	90	143	53	80	58	113	2	4	226	6-26_15:35:40.0	278.1				
179	182	76	126	34	65	71	121	3	4	226	6-26_15:35:41.0	277.9				
189	193	63	115	23	54	82	131	2	4	226	6-26_15:35:42.0	277.4				
167	173	86	138	47	83	75	128	2	4	226	6-26_15:35:43.0	277.8				
177	184	77	128	34	66	65	117	2	4	226	6-26_15:35:44.0	277.8				
176	181	78	130	36	68	62	115	3	4	226	6-26_15:35:45.0	277.5				
159	171	79	128	40	68	75	122	2	4	226	6-26_15:35:46.0	277.2				
146	162	73	119	37	67	68	112	2	4	225	6-26_15:35:47.0	277.3				
130	147	69	114	37	66	71	110	2	4	226	6-26_15:35:48.0	277.4				
121	145	58	104	30	65	64	109	2	4	226	6-26_15:35:49.0	277.3				
111	147	51	98	24	67	57	108	2	4	226	6-26_15:35:50.0	277.2				
130	144	71	115	37	58	66	99	3	4	226	6-26_15:35:51.0	276.9				
114	144	56	102	33	67	65	105	2	4	226	6-26_15:35:52.0	276.2				
123	136	69	109	30	55	61	100	2	4	226	6-26_15:35:53.0	276.2				
117	146	57	106	38	66	69	109	2	4	226	6-26_15:35:54.0	275.5				
117	135	61	103	29	58	67	101	3	3	225	6-26_15:35:55.0	275.5				
109	138	53	98	33	69	69	109	2	4	226	6-26_15:35:56.0	275.3				
117	140	62	103	30	61	67	108	2	4	226	6-26_15:35:57.0	275.2				
114	138	58	103	34	62	61	108	3	4	225	6-26_15:35:58.0	275.2				
110	142	58	105	37	63	69	103	2	4	226	6-26_15:35:59.0	274.8				
110	142	55	106	39	63	66	101	3	4	226	6-26_15:36:0.0	274.5				
115	149	65	114	37	52	58	104	3	4	225	6-26_15:36:1.0	274.2				
114	141	65	105	31	58	66	104	3	4	225	6-26_15:36:2.0	274.2				
111	143	60	107	36	63	64	100	2	4	226	6-26_15:36:3.0	274.1				
112	133	53	103	37	69	74	104	2	4	225	6-26_15:36:4.0	273.9				
110	138	54	107	37	60	57	105	2	4	226	6-26_15:36:5.0	273.8				
121	142	70	105	24	59	59	116	2	4	226	6-26_15:36:6.0	274				
119	140	66	102	27	61	64	109	2	4	226	6-26_15:36:7.0	274				
118	139	62	102	27	65	67	107	2	4	226	6-26_15:36:8.0	274.2				
108	138	53	111	39	55	57	107	2	4	225	6-26_15:36:9.0	274.5				
117	144	68	99	25	67	68	107	2	4	226	6-26_15:36:10.0	274.7				
121	143	74	95	22	75	78	101	2	4	226	6-26_15:36:11.0	274.8				
115	140	60	109	33	59	64	107	2	4	226	6-26_15:36:12.0	275				
113	143	62	110	26	58	66	109	3	4	226	6-26_15:36:13.0	274.8				
116	138	57	109	34	57	63	111	3	4	226	6-26_15:36:14.0	274.4				
115	145	70	102	24	72	79	102	3	4	226	6-26_15:36:15.0	274.4				
119	138	58	106	35	58	67	106	2	4	225	6-26_15:36:16.0	274.5				
115	142	64	103	29	69	72	102	2	4	225	6-26_15:36:17.0	274.2				
109	144	60	116	21	62	77	105	3	4	226	6-26_15:36:18.0	274.1				
110	146	65	107	27	66	72	104	2	4	226	6-26_15:36:19.0	273.9				
121	138	60	105	34	62	68	108	2	4	226	6-26_15:36:20.0	273.5				
109	148	68	109	20	75	78	96	3	4	225	6-26_15:36:21.0	273.2				
109	149	69	106	25	70	69	105	2	4	226	6-26_15:36:22.0	272.8				
122	137	57	110	32	62	69	106	3	4	226	6-26_15:36:23.0	272.7				
124	138	58	107	32	60	70	106	2	4	225	6-26_15:36:24.0	272.4				
124	138	58	109	29	66	71	103	2	4	226	6-26_15:36:25.0	271.7				
124	134	55	111	33	59	71	106	3	4	225	6-26_15:36:26.0	271.7				
119	137	58	109	26	66	68	107	2	4	226	6-26_15:36:27.0	270.9				
122	136	57	108	26	68	67	107	2	4	225	6-26_15:36:28.0	270.3				
111	146	67	95	41	53	58	114	2	4	226	6-26_15:36:29.0	270				
120	138	63	104	27	67	57	113	3	4	226	6-26_15:36:30.0	269.3				
119	141	63	101	30	65	62	111	3	4	225	6-26_15:36:31.0	268.7				
122	134	54	110	24	69	69	108	3	4	225	6-26_15:36:32.0	268.3				
106	150	68	94	45	50	66	106	3	4	226	6-26_15:36:33.0	268.2				
114	147	70	94	40	53	63	110	2	4	225	6-26_15:36:34.0	268.2				
126	132	52	110	21	71	58	115	3	4	225	6-26_15:36:35.0	268.2				
126	138	64	100	36	54	56	112	3	4	226	6-26_15:36:36.0	268.3				
119	139	58	106	29	65	66	110	2	4	226	6-26_15:36:37.0	268.3				
110	147	63	102	36	58	77	99	2	4	226	6-26_15:36:38.0	268				
121	138	56	107	28	65	64	110	2	4	226	6-26_15:36:39.0	267.2				
123	134	52	111	23	69	61	116	2	4	226	6-26_15:36:40.0	267.3				
121	145	65	102	38	58	69	105	2	4	226	6-26_15:36:41.0	266.8				
121	140	58	107	29	63	60	115	2	4	226	6-26_15:36:42.0	266.8				
124	141	58	109	28	66	59	114	2	4	226	6-26_15:36:43.0	266.3				
124	139	57	109	32	60	61	110	2	4	226	6-26_15:36:44.0	266.2				
123	135	53	109	30	58	61	106	3	4	225	6-26_15:36:45.0	265.9				
130	140	62	101	43	52	68	109	2	4	226	6-26_15:36:46.0	265.4				
120	146	58	112	26	66	58	114	3	4	225	6-26_15:36:47.0	265.7				
126	151	64	108	30	67	63	116	2	4	225	6-26_15:36:48.0	265.8				
134	148	65	107	37	62	69	115	2	4	225	6-26_15:36:49.0	266				
139	162	69	113	33	71	64	123	3	4	226	6-26_15:36:50.0	266				
151	163	68	123	35	64	67	118	2	4	225	6-26_15:36:51.0	265.9				
167	168	71	128	38	64	71	119	2	4	226	6-26_15:36:52.0	265.9				
165	182	86	120	42	67	76	124	2	4	226	6-26_15:36:53.0	265.4				
157	170	69	130	32	71	64	125	2	4	226	6-26_15:36:54.0	265.5				
156	177	74	130	29	77	60	128	2	4	225	6-26_15:36:55.0	265.4				
169	183	86	121	43	74	70	133	2	4	225	6-26_15:36:56.0	265.6				
183	171	81	122	54	58	83	124	2	4	225	6-26_15:36:57.0	265.8				
178	184	85	131	43	71	70	134	2	4	226	6-26_15:36:58.0	265.8				
165	180	74	133	38	67	71	121	2	4	226	6-26_15:36:59.0	266				
152	171	66	131	35	60	76	117	3	4	225	6-26_15:37:0.0	266				
140	159	58	122	49	51	86	125	2	4	225	6-26_15:37:1.0	266				
145	163	70	119	35	64	72	119	2	4	226	6-26_15:37:2.0	266.4				
137	155	61	110	47	65	69	129	2	4	226	6-26_15:37:3.0	266.8				
148	156	72	109	40	72	62	125	2	4	226	6-26_15:37:4.0	267.3				
157	166	69	119	49	65	71	133	2	4	225	6-26_15:37:5.0	267.9				
177	181	83	129	40	72	67	130	2	4	225	6-26_15:37:6.0	268.3				
177	178	82	129	43	72	68	133	3	4	226	6-26_15:37:7.0	268.9				
164	183	73	134	39	61	79	130	3	4	226	6-26_15:37:8.0	269				
164	181	76	132	40	64	75	129	2	4	226	6-26_15:37:9.0	268.9				
166	172	78	122	38	72	66	124	2	4	225	6-26_15:37:10.0	268.9				
166	181	72	130	45	64	72	134	2	4	226	6-26_15:37:11.0	268.9				
182	185	86	135	30	69	76	126	2	4	226	6-26_15:37:12.0	268.9				
183	189	83	135	43	73	72	132	2	4	225	6-26_15:37:13.0	269.1				
191	198	87	146	43	66	77	139	2	4	225	6-26_15:37:14.0	269.3				
193	189	93	138	34	74	75	131	2	4	226	6-26_15:37:15.0	269.4				
186	194	83	142	46	69	73	139	2	4	225	6-26_15:37:16.0	269.6				
180	185	85	138	41	69	74	134	2	4	226	6-26_15:37:17.0	269.6				
181	179	92	142	31	60	79	139	2	4	225	6-26_15:37:18.0	270				
180	188	81	141	41	65	73	137	2	4	226	6-26_15:37:19.0	270.1				
170	177	85	133	38	69	75	132	2	4	225	6-26_15:37:20.0	270.4				
164	180	68	124	47	80	62	119	2	4	226	6-26_15:37:21.0	270.6				
139	155	82	123	26	53	74	132	3	4	226	6-26_15:37:22.0	271				
141	161	66	110	29	62	75	125	3	4	226	6-26_15:37:23.0	271.3				
137	158	65	109	29	61	74	126	2	4	226	6-26_15:37:24.0	271.5				
128	150	72	119	36	62	60	114	2	4	226	6-26_15:37:25.0	271.6				
130	151	71	116	34	62	65	118	2	4	226	6-26_15:37:26.0	271.8				
129	150	68	117	40	67	60	113	3	4	226	6-26_15:37:27.0	271.9				
135	157	65	111	29	58	63	115	2	4	226	6-26_15:37:28.0	271.9				
136	157	64	110	32	60	65	117	2	4	225	6-26_15:37:29.0	272.2				
135	158	61	109	30	60	69	121	2	4	226	6-26_15:37:30.0	272.6				
132	153	65	113	33	63	66	121	2	4	226	6-26_15:37:31.0	272.5				
142	160	58	105	24	54	62	119	2	4	226	6-26_15:37:32.0	272.3				
137	156	65	113	35	65	66	124	3	4	226	6-26_15:37:33.0	272.5				
145	163	63	110	31	59	66	122	2	4	226	6-26_15:37:34.0	272.4				
150	166	64	114	32	61	65	123	2	4	226	6-26_15:37:35.0	272.3				
158	168	70	121	34	64	59	121	2	4	226	6-26_15:37:36.0	272.8				
158	167	71	122	36	67	70	130	2	4	226	6-26_15:37:37.0	273				
162	172	76	127	39	65	70	130	2	4	226	6-26_15:37:38.0	273.3				
171	176	84	138	47	76	70	140	2	4	226	6-26_15:37:39.0	273.3				
190	190	82	133	39	70	70	138	3	4	226	6-26_15:37:40.0	273.9				
189	190	88	141	44	74	67	139	3	4	225	6-26_15:37:41.0	274.1				
183	188	88	143	48	75	80	145	3	4	225	6-26_15:37:42.0	274.3				
191	196	80	138	35	66	71	136	2	4	226	6-26_15:37:43.0	274.8				
191	197	84	140	38	71	63	135	2	4	226	6-26_15:37:44.0	274.8				
186	194	84	141	41	70	74	139	2	4	226	6-26_15:37:45.0	275				
182	188	93	147	48	74	79	144	2	4	226	6-26_15:37:46.0	275.1				
193	195	88	146	46	79	74	144	2	4	226	6-26_15:37:47.0	275.4				
187	192	91	144	44	73	77	141	2	4	226	6-26_15:37:48.0	275.5				
190	201	76	131	31	62	63	135	3	4	225	6-26_15:37:49.0	275.6				
188	192	86	141	42	71	72	142	2	4	226	6-26_15:37:50.0	275.6				
180	188	86	138	35	64	66	136	3	4	226	6-26_15:37:51.0	275.7				
183	190	84	135	32	62	62	138	3	4	226	6-26_15:37:52.0	275.7				
189	192	90	145	44	70	73	138	2	4	226	6-26_15:37:53.0	276.1				
190	196	81	141	42	78	74	144	2	4	226	6-26_15:37:54.0	276.1				
191	194	84	143	44	72	73	140	2	4	226	6-26_15:37:55.0	276.2				
185	188	89	140	36	64	64	140	3	4	226	6-26_15:37:56.0	276.4				
195	195	94	148	43	63	64	132	2	3	225	6-26_15:37:57.0	276.4				
179	188	84	139	37	64	65	139	3	4	226	6-26_15:37:58.0	276.5				
155	176	68	124	41	75	76	131	2	4	226	6-26_15:37:59.0	276.5				
152	168	76	121	32	62	66	133	2	4	226	6-26_15:38:0.0	276.7				
143	166	73	120	29	61	68	131	2	4	226	6-26_15:38:1.0	276.6				
134	159	64	117	36	58	61	127	3	4	226	6-26_15:38:2.0	276.7				
136	159	67	112	34	63	69	126	2	4	226	6-26_15:38:3.0	276.6				
134	164	71	117	26	63	73	129	3	4	226	6-26_15:38:4.0	276.4				
133	158	63	115	35	64	68	124	3	4	226	6-26_15:38:5.0	276.4				
128	159	61	120	37	58	63	132	2	4	226	6-26_15:38:6.0	276.5				
137	152	58	113	40	59	62	126	2	4	226	6-26_15:38:7.0	277				
134	158	63	113	36	62	67	125	2	4	226	6-26_15:38:8.0	277.2				
132	158	60	119	35	55	67	130	2	4	226	6-26_15:38:9.0	277.3				
123	165	65	123	25	61	74	125	2	4	226	6-26_15:38:10.0	277.1				
132	156	62	116	33	62	68	127	2	4	226	6-26_15:38:11.0	277.1				
136	156	64	112	33	66	68	128	3	4	226	6-26_15:38:12.0	276.8				
132	160	69	111	29	68	70	124	2	4	226	6-26_15:38:13.0	276.8				
129	160	63	116	30	65	72	124	2	4	226	6-26_15:38:14.0	278.3				
133	158	68	108	37	64	65	129	2	4	227	6-26_15:38:15.0	278.7				
131	156	61	120	26	65	75	122	2	4	226	6-26_15:38:16.0	279.3				
129	163	76	99	40	66	56	134	3	4	226	6-26_15:38:17.0	279.4				
132	158	66	111	35	62	68	128	2	4	226	6-26_15:38:18.0	280.1				
140	154	64	109	44	57	63	134	2	4	226	6-26_15:38:19.0	280.2				
141	151	59	118	32	63	74	125	2	4	226	6-26_15:38:20.0	280.2				
133	159	66	112	35	65	67	130	2	4	226	6-26_15:38:21.0	280.4				
134	158	65	114	34	61	72	127	2	4	226	6-26_15:38:22.0	280.7				
137	156	65	115	38	58	73	127	2	4	226	6-26_15:38:23.0	280.4				
127	166	75	105	36	67	56	140	2	4	226	6-26_15:38:24.0	280.4				
136	156	62	114	37	59	73	126	3	4	226	6-26_15:38:25.0	280.4				
139	154	63	116	31	67	66	130	2	4	226	6-26_15:38:26.0	280.2				
133	156	64	114	34	63	71	127	3	4	226	6-26_15:38:27.0	279.8				
135	156	63	118	29	69	72	127	3	4	225	6-26_15:38:28.0	279.3				
135	156	62	117	31	65	73	129	2	4	225	6-26_15:38:29.0	279.2				
128	165	71	107	40	57	74	126	2	4	226	6-26_15:38:30.0	278.8				
132	159	67	112	35	63	69	129	2	4	226	6-26_15:38:31.0	278.8				
143	151	58	121	25	73	64	137	2	4	226	6-26_15:38:32.0	278.5				
133	160	68	111	35	64	72	130	2	4	226	6-26_15:38:33.0	278.4				
141	155	65	114	32	67	59	137	2	4	227	6-26_15:38:34.0	278.3				
138	159	66	115	34	64	68	133	2	4	226	6-26_15:38:35.0	278.2				
135	157	60	124	25	74	63	137	3	4	226	6-26_15:38:36.0	278.2				
138	158	65	118	31	68	68	135	3	4	226	6-26_15:38:37.0	277.8				
144	155	63	116	33	63	63	135	3	4	226	6-26_15:38:38.0	277.9				
141	158	68	113	39	58	72	130	2	4	226	6-26_15:38:39.0	277.5				
131	161	61	124	26	75	61	140	2	4	226	6-26_15:38:40.0	277.4				
139	158	64	117	36	63	68	132	2	4	226	6-26_15:38:41.0	277.2				
138	164	71	116	33	70	70	137	2	4	226	6-26_15:38:42.0	276.9				
139	161	64	119	32	65	68	133	2	4	225	6-26_15:38:43.0	276.8				
139	164	71	117	35	67	70	136	2	4	226	6-26_15:38:44.0	277				
135	157	59	124	33	62	70	129	3	4	226	6-26_15:38:45.0	277.2				
140	160	66	119	35	64	70	130	2	4	226	6-26_15:38:46.0	277.2				
136	168	67	122	28	73	63	136	2	4	226	6-26_15:38:47.0	277.3				
142	169	75	119	29	71	63	135	2	4	227	6-26_15:38:48.0	277.7				
140	162	70	118	32	68	69	136	2	4	226	6-26_15:38:49.0	277.4				
135	160	62	120	40	58	77	132	2	4	226	6-26_15:38:50.0	277.3				
147	157	72	108	42	67	72	142	2	4	226	6-26_15:38:51.0	276.7				
145	174	75	126	21	74	59	130	2	4	226	6-26_15:38:52.0	276.4				
142	159	68	115	39	66	71	138	2	4	226	6-26_15:38:53.0	276.1				
143	167	72	120	33	69	68	134	2	4	226	6-26_15:38:54.0	275.7				
131	162	57	120	45	55	80	142	2	4	226	6-26_15:38:55.0	275.3				
147	158	76	111	37	72	65	139	2	4	226	6-26_15:38:56.0	275				
152	161	80	113	31	78	58	134	2	4	226	6-26_15:38:57.0	275.1				
138	168	64	121	37	62	74	140	3	4	225	6-26_15:38:58.0	275.1				
149	165	76	121	27	71	66	131	3	4	226	6-26_15:38:59.0	275				
129	151	62	103	49	74	58	141	2	4	226	6-26_15:39:0.0	274.9				
142	161	71	117	34	68	68	135	3	4	226	6-26_15:39:1.0	275				
147	160	79	118	24	68	68	130	2	4	226	6-26_15:39:2.0	275.2				
142	159	74	116	29	71	66	133	2	4	227	6-26_15:39:3.0	275.2				
136	164	60	114	45	69	63	141	3	4	226	6-26_15:39:4.0	275.1				
143	163	71	120	33	66	67	137	2	4	226	6-26_15:39:5.0	274.9				
146	170	67	125	41	60	71	141	3	4	226	6-26_15:39:6.0	274.8				
146	169	70	120	34	65	67	137	3	4	226	6-26_15:39:7.0	274.5				
141	166	62	117	43	70	61	136	3	4	226	6-26_15:39:8.0	274.6				
152	170	69	126	39	62	67	141	3	4	226	6-26_15:39:9.0	274.6				
147	166	70	122	37	65	69	138	3	4	225	6-26_15:39:10.0	274.5				
151	173	65	122	46	72	60	134	2	4	226	6-26_15:39:11.0	274.8				
147	170	67	121	40	70	66	136	3	4	225	6-26_15:39:12.0	274.6				
143	162	73	119	30	65	73	140	2	4	226	6-26_15:39:13.0	274.4				
145	166	69	117	34	71	72	135	2	4	225	6-26_15:39:14.0	274.3				
148	172	61	117	43	77	59	130	2	4	226	6-26_15:39:15.0	273.8				
143	159	83	132	33	54	70	144	2	4	226	6-26_15:39:16.0	273.5				
139	161	74	118	28	60	73	142	2	4	226	6-26_15:39:17.0	273.4				
141	156	80	127	31	57	69	140	2	4	226	6-26_15:39:18.0	273.4				
140	155	80	125	32	57	69	139	2	4	226	6-26_15:39:19.0	273.6				
145	166	64	115	35	67	71	138	2	4	227	6-26_15:39:20.0	273.5				
143	163	70	119	34	63	69	138	2	4	227	6-26_15:39:21.0	273.4				
153	173	58	110	33	71	78	142	3	4	226	6-26_15:39:22.0	273.5				
144	164	70	118	34	65	70	138	2	4	227	6-26_15:39:23.0	273.2				
148	169	61	109	24	58	74	142	2	4	226	6-26_15:39:24.0	272.7				
145	166	65	110	20	52	75	144	2	4	226	6-26_15:39:25.0	272.5				
143	165	69	120	38	71	70	139	2	4	226	6-26_15:39:26.0	272.5				
146	165	66	116	34	66	72	139	2	4	226	6-26_15:39:27.0	272.3				
144	164	70	119	35	67	69	138	2	4	226	6-26_15:39:28.0	272.2				
136	158	76	129	47	78	68	137	2	4	226	6-26_15:39:29.0	271.6				
141	160	73	123	38	67	66	137	2	4	226	6-26_15:39:30.0	271.1				
142	163	71	120	36	65	71	138	2	4	225	6-26_15:39:31.0	270.7				
148	167	70	118	34	64	64	135	3	4	227	6-26_15:39:32.0	269.9				
140	160	75	124	39	71	68	139	2	4	226	6-26_15:39:33.0	269.5				
147	166	70	120	36	65	67	138	2	4	226	6-26_15:39:34.0	269.3				
146	166	70	117	32	63	68	136	2	4	225	6-26_15:39:35.0	268.9				
146	169	67	115	29	59	65	136	2	4	226	6-26_15:39:36.0	268.7				
143	159	77	126	43	71	76	145	2	4	226	6-26_15:39:37.0	268.5				
150	166	73	125	40	72	68	141	2	4	226	6-26_15:39:38.0	268.2				
146	165	72	121	35	63	68	137	3	4	226	6-26_15:39:39.0	268.1				
143	166	68	115	29	60	65	135	2	4	226	6-26_15:39:40.0	267.7				
147	161	78	128	43	72	75	144	2	4	226	6-26_15:39:41.0	267.5				
155	171	69	122	38	70	68	143	2	4	226	6-26_15:39:42.0	267.3				
141	162	68	115	27	56	61	130	2	4	226	6-26_15:39:43.0	267.2				
161	173	74	129	44	78	74	150	2	4	226	6-26_15:39:44.0	267				
153	169	73	123	38	70	72	143	2	4	226	6-26_15:39:45.0	266.8				
157	172	76	129	37	67	72	141	3	4	226	6-26_15:39:46.0	266.5				
171	180	89	143	46	77	78	151	2	4	226	6-26_15:39:47.0	266.4				
179	186	91	145	46	77	75	152	3	4	226	6-26_15:39:48.0	266.3				
190	196	83	139	37	70	69	151	3	4	226	6-26_15:39:49.0	266.2				
179	190	85	139	39	71	72	147	3	4	226	6-26_15:39:50.0	265.9				
164	178	79	128	34	65	67	142	2	4	226	6-26_15:39:51.0	265.8				
164	184	71	128	38	72	70	146	3	4	225	6-26_15:39:52.0	265.6				
166	174	86	136	42	67	72	140	2	4	227	6-26_15:39:53.0	265.3				
170	176	85	135	41	67	72	141	3	4	226	6-26_15:39:54.0	265				
167	183	75	130	37	73	72	150	2	4	226	6-26_15:39:55.0	264.4				
166	182	74	130	41	71	74	145	2	4	227	6-26_15:39:56.0	264.3				
160	172	80	127	36	61	65	137	3	4	226	6-26_15:39:57.0	264.2				
155	168	77	123	32	61	62	140	2	4	227	6-26_15:39:58.0	264.1				
156	171	77	126	34	62	66	138	2	3	226	6-26_15:39:59.0	264.2				
150	170	70	124	38	65	69	139	2	4	227	6-26_15:40:0.0	263.8				
145	170	66	120	38	66	70	138	2	4	227	6-26_15:40:1.0	263.5				
150	170	72	123	36	64	67	141	2	4	226	6-26_15:40:2.0	263.4				
149	173	71	125	37	64	65	140	2	4	226	6-26_15:40:3.0	263.1				
153	173	76	125	33	60	63	141	2	4	226	6-26_15:40:4.0	262.7				
157	171	77	125	31	61	66	143	2	4	226	6-26_15:40:5.0	262.3				
150	162	64	115	39	76	76	133	2	4	226	6-26_15:40:6.0	262.2				
148	174	68	123	40	67	66	140	2	3	226	6-26_15:40:7.0	262.2				
154	177	72	131	37	60	61	143	2	4	226	6-26_15:40:8.0	261.9				
157	180	69	133	46	65	65	141	3	4	227	6-26_15:40:9.0	261.8				
168	186	78	134	40	61	61	149	3	4	226	6-26_15:40:10.0	261.9				
170	179	78	129	35	68	69	146	3	4	226	6-26_15:40:11.0	261.9				
171	183	77	132	36	68	70	148	3	4	226	6-26_15:40:12.0	261.7				
174	187	80	135	39	66	67	148	3	4	226	6-26_15:40:13.0	261.6				
166	186	68	140	53	60	57	148	2	4	226	6-26_15:40:14.0	261.6				
186	190	87	133	32	70	73	151	2	4	226	6-26_15:40:15.0	261.6				
182	196	75	143	53	64	62	151	2	4	226	6-26_15:40:16.0	261.5				
191	197	89	142	33	66	70	158	2	4	226	6-26_15:40:17.0	261.2				
189	196	91	138	33	69	73	152	3	4	226	6-26_15:40:18.0	261.2				
186	193	81	140	45	69	68	150	3	4	226	6-26_15:40:19.0	261.2				
180	193	81	142	41	62	66	156	2	4	227	6-26_15:40:20.0	261.4				
179	192	80	141	39	67	68	153	2	4	226	6-26_15:40:21.0	261.4				
186	193	85	138	38	69	72	152	2	3	225	6-26_15:40:22.0	261.9				
200	187	89	128	44	79	67	148	2	4	226	6-26_15:40:23.0	262.1				
198	188	89	132	42	78	68	149	2	4	226	6-26_15:40:24.0	262.1				
185	185	83	128	45	69	63	153	3	4	227	6-26_15:40:25.0	262.4				
161	173	72	127	38	61	68	145	2	4	226	6-26_15:40:26.0	262.5				
152	174	76	121	34	65	64	144	2	4	226	6-26_15:40:27.0	262.5				
159	169	70	122	40	62	64	144	3	4	226	6-26_15:40:28.0	262.4				
155	175	77	124	32	70	66	144	2	4	226	6-26_15:40:29.0	262.2				
153	183	84	114	40	65	55	153	3	4	226	6-26_15:40:30.0	262				
163	175	72	131	31	70	71	143	3	4	226	6-26_15:40:31.0	261.8				
158	180	80	119	41	61	64	147	3	4	226	6-26_15:40:32.0	261.5				
158	168	69	128	29	68	69	141	3	4	226	6-26_15:40:33.0	261.3				
149	169	72	119	37	61	66	140	3	4	226	6-26_15:40:34.0	261				
146	168	72	115	34	60	60	144	2	4	226	6-26_15:40:35.0	261				
150	163	65	122	30	66	64	140	2	4	226	6-26_15:40:36.0	260.7				
145	167	71	117	36	59	66	139	3	4	226	6-26_15:40:37.0	260.6				
149	160	65	120	31	66	64	142	2	4	226	6-26_15:40:38.0	260.2				
150	160	67	117	29	64	59	143	2	4	226	6-26_15:40:39.0	259.9				
153	158	64	120	28	66	56	146	3	4	227	6-26_15:40:40.0	259.6				
152	160	64	117	33	60	63	140	3	4	226	6-26_15:40:41.0	259.4				
146	162	64	119	30	65	65	142	2	4	226	6-26_15:40:42.0	258.9				
148	165	73	111	41	54	66	135	2	4	226	6-26_15:40:43.0	258.6				
144	165	67	119	29	66	64	143	2	4	226	6-26_15:40:44.0	258.6				
149	160	65	119	30	62	60	141	3	4	226	6-26_15:40:45.0	258.5				
136	172	74	114	34	64	72	140	2	4	226	6-26_15:40:46.0	258.7				
149	161	66	119	33	61	66	137	2	4	226	6-26_15:40:47.0	258.6				
151	162	69	116	35	59	67	138	2	4	226	6-26_15:40:48.0	259				
146	161	66	121	30	62	63	139	2	4	226	6-26_15:40:49.0	259.3				
146	162	63	125	29	63	62	140	2	4	227	6-26_15:40:50.0	259.7				
145	157	57	126	29	57	63	136	2	4	227	6-26_15:40:51.0	259.7				
149	161	64	117	36	57	70	135	3	3	226	6-26_15:40:52.0	259.7				
152	164	73	113	37	65	69	146	2	4	226	6-26_15:40:53.0	259.7				
142	167	67	120	28	64	62	141	3	4	225	6-26_15:40:54.0	259.8				
140	171	69	123	24	70	57	143	3	4	226	6-26_15:40:55.0	260.3				
153	174	75	126	32	70	69	144	2	3	227	6-26_15:40:56.0	260.6				
161	171	71	125	40	59	84	144	2	3	225	6-26_15:40:57.0	260.9				
162	165	78	116	39	67	72	148	2	3	226	6-26_15:40:58.0	261.1				
159	167	78	122	33	66	68	141	2	3	225	6-26_15:40:59.0	261.3				
156	165	71	118	39	62	73	143	3	4	225	6-26_15:41:0.0	261.5				
156	176	75	130	27	63	75	136	2	3	225	6-26_15:41:1.0	261.4				
154	163	68	120	40	60	74	145	2	3	226	6-26_15:41:2.0	261.5				
153	170	72	126	33	64	72	139	2	4	226	6-26_15:41:3.0	261.7				
148	163	66	118	48	57	79	152	2	3	226	6-26_15:41:4.0	261.6				
152	165	69	119	41	65	71	146	2	4	227	6-26_15:41:5.0	261.4				
152	167	72	121	36	64	72	142	2	3	226	6-26_15:41:6.0	261.4				
158	160	76	115	25	64	70	129	2	3	226	6-26_15:41:7.0	261.2				
157	160	77	113	24	67	68	129	2	4	226	6-26_15:41:8.0	260.9				
152	163	69	116	36	64	68	137	2	4	226	6-26_15:41:9.0	260.8				
162	171	75	125	32	60	77	141	2	3	226	6-26_15:41:10.0	261				
161	172	78	125	34	66	74	145	3	4	226	6-26_15:41:11.0	260.9				
161	167	78	123	34	68	69	144	2	4	226	6-26_15:41:12.0	261.6				
161	179	71	130	38	57	81	153	2	3	226	6-26_15:41:13.0	262				
161	168	78	121	34	72	68	141	2	3	226	6-26_15:41:14.0	262.3				
159	182	65	130	48	60	72	154	2	3	226	6-26_15:41:15.0	262.4				
164	177	75	129	37	62	76	147	2	3	226	6-26_15:41:16.0	262.6				
165	179	73	130	40	62	74	149	2	3	225	6-26_15:41:17.0	262.7				
159	169	76	118	36	75	68	141	2	3	226	6-26_15:41:18.0	262.3				
164	176	74	124	38	72	68	144	3	3	225	6-26_15:41:19.0	262.2				
171	180	78	131	38	65	72	150	2	4	226	6-26_15:41:20.0	261.8				
173	175	82	132	32	64	77	149	2	3	225	6-26_15:41:21.0	261.6				
163	162	74	122	37	60	66	137	2	3	226	6-26_15:41:22.0	261.4				
137	127	67	94	23	41	53	117	2	3	226	6-26_15:41:23.0	261.4				
172	174	74	130	38	54	65	141	2	4	226	6-26_15:41:24.0	261.1				
169	182	70	125	39	71	69	146	2	3	226	6-26_15:41:25.0	260.8				
175	186	71	126	42	76	66	145	2	3	226	6-26_15:41:26.0	260.6				
174	177	83	131	31	62	76	153	2	3	225	6-26_15:41:27.0	260.4				
193	196	83	141	40	67	70	154	2	4	226	6-26_15:41:28.0	260.4				
207	194	99	149	32	62	87	167	2	4	226	6-26_15:41:29.0	260.2				
206	201	92	147	38	68	81	162	2	3	226	6-26_15:41:30.0	259.7				
199	200	87	141	40	75	74	157	2	3	226	6-26_15:41:31.0	259.4				
190	190	88	138	31	66	86	164	2	3	225	6-26_15:41:32.0	259.3				
200	200	84	140	43	76	72	156	2	4	226	6-26_15:41:33.0	259.1				
210	206	88	149	47	70	68	155	2	3	226	6-26_15:41:34.0	259.1				
202	203	86	143	41	75	76	160	2	3	226	6-26_15:41:35.0	259.2				
194	193	92	140	29	62	88	168	2	3	225	6-26_15:41:36.0	259.2				
205	202	90	148	45	72	71	156	2	3	226	6-26_15:41:37.0	259				
190	188	97	148	33	57	74	161	2	4	226	6-26_15:41:38.0	258.8				
175	181	81	133	36	66	70	151	3	4	226	6-26_15:41:39.0	258.7				
171	182	69	122	31	61	78	153	2	4	227	6-26_15:41:40.0	258.6				
158	170	79	129	32	61	63	143	2	4	226	6-26_15:41:41.0	258.3				
155	166	82	132	38	63	63	142	2	3	226	6-26_15:41:42.0	258.5				
153	163	81	129	37	64	59	139	2	3	226	6-26_15:41:43.0	258.6				
159	171	70	122	34	63	73	150	2	3	226	6-26_15:41:44.0	259.5				
160	170	72	123	35	64	71	148	2	3	226	6-26_15:41:45.0	259.8				
160	171	69	121	28	58	68	144	2	3	225	6-26_15:41:46.0	260.3				
160	168	77	127	36	65	63	144	2	4	226	6-26_15:41:47.0	260.6				
153	164	78	129	42	69	76	152	3	4	226	6-26_15:41:48.0	260.4				
149	163	74	122	37	64	81	153	2	3	226	6-26_15:41:49.0	260.5				
158	170	69	121	31	59	68	145	2	3	226	6-26_15:41:50.0	260.9				
149	162	78	124	38	63	80	151	2	4	226	6-26_15:41:51.0	261.2				
160	168	76	129	41	70	74	153	2	3	226	6-26_15:41:52.0	261.3				
152	162	77	125	35	63	77	151	2	3	226	6-26_15:41:53.0	261.8				
157	162	86	135	48	75	79	155	2	3	226	6-26_15:41:54.0	262.3				
163	174	71	125	35	66	67	151	2	3	226	6-26_15:41:55.0	262.5				
167	177	68	121	31	62	62	145	2	3	226	6-26_15:41:56.0	262.8				
169	177	69	120	30	61	63	146	2	3	226	6-26_15:41:57.0	263.1				
159	169	71	122	33	62	71	147	2	3	226	6-26_15:41:58.0	263.3				
158	163	73	124	36	61	72	145	2	3	226	6-26_15:41:59.0	263.5				
154	165	68	117	27	54	65	140	2	3	225	6-26_15:42:0.0	263.7				
159	167	75	124	34	57	69	143	2	3	226	6-26_15:42:1.0	264.1				
160	162	77	125	33	55	67	143	2	3	226	6-26_15:42:2.0	263.9				
164	171	72	126	36	64	71	146	3	3	225	6-26_15:42:3.0	264.2				
161	168	73	124	32	56	67	142	2	3	226	6-26_15:42:4.0	264.5				
160	170	70	119	31	60	66	148	2	4	226	6-26_15:42:5.0	264.7				
167	163	86	129	36	48	60	133	2	3	226	6-26_15:42:6.0	265.3				
165	173	70	124	38	62	70	145	2	3	226	6-26_15:42:7.0	265.6				
167	165	75	122	33	55	62	143	2	3	226	6-26_15:42:8.0	266.2				
159	164	68	117	32	56	65	145	2	3	226	6-26_15:42:9.0	266.3				
165	161	71	117	24	55	58	140	2	3	226	6-26_15:42:10.0	266.3				
180	177	78	129	36	59	67	149	3	3	226	6-26_15:42:11.0	266.5				
186	185	78	132	36	62	67	154	2	3	226	6-26_15:42:12.0	266.8				
186	191	74	126	30	66	69	162	2	3	226	6-26_15:42:13.0	266.6				
193	194	76	130	32	69	70	164	2	4	226	6-26_15:42:14.0	266.6				
196	187	92	136	32	56	60	154	3	3	226	6-26_15:42:15.0	266.9				
